     2.11           OBSERVATION DATA    G (GPS)             RINEX VERSION / TYPE
teqc  2018Jun8                          20190204 12:52:39UTCPGM / RUN BY / DATE
Linux 2.6.32-573.12.1.x86_64|x86_64|gcc -static|Linux 64|=+ COMMENT
teqc  2018Jun8                          20190204 12:52:39UTCCOMMENT
     2.11           OBSERVATION DATA    M (MIXED)           COMMENT
teqc  2018Jun8                          20190204 12:52:38UTCCOMMENT
teqc  2016Nov7      IGN-RGP             20180625 14:03:12UTCCOMMENT
Linux 2.4.21-27.ELsmp|Opteron|gcc|Linux x86_64|=+           COMMENT
teqc  2016Nov7      IGN-RGP             20180625 14:03:11UTCCOMMENT
BIT 2 OF LLI FLAGS DATA COLLECTED UNDER A/S CONDITION       COMMENT
MLVL                                                        MARKER NAME
10092M001                                                   MARKER NUMBER
Automatic           IGN                                     OBSERVER / AGENCY
1830331             LEICA GR25          4.11                REC # / TYPE / VERS
5411118464          TRM57971.00     NONE                    ANT # / TYPE
  4201577.2090   189859.8560  4779064.5670                  APPROX POSITION XYZ
        0.0750        0.0000        0.0000                  ANTENNA: DELTA H/E/N
     1     1                                                WAVELENGTH FACT L1/2
    21    L1    L2    C1    P1    P2    D1    D2    S1    S2# / TYPES OF OBSERV
          L5    C5    D5    S5    L7    C7    D7    S7    L8# / TYPES OF OBSERV
          C8    D8    S8                                    # / TYPES OF OBSERV
    30.0000                                                 INTERVAL
DefaultJobName                                              COMMENT
DefaultUserDiscription                                      COMMENT
Project creator:                                            COMMENT
 SNR is mapped to RINEX snr flag value [0-9]                COMMENT
  L1 & L2: min(max(int(snr_dBHz/6), 0), 9)                  COMMENT
    18                                                      LEAP SECONDS
Forced Modulo Decimation to 30 seconds                      COMMENT
teqc_2018 edited: all GLONASS satellites excluded           COMMENT
teqc_2018 edited: all SBAS satellites excluded              COMMENT
teqc_2018 edited: all Galileo satellites excluded           COMMENT
  2018     6    25    13     0    0.0000000     GPS         TIME OF FIRST OBS
                                                            END OF HEADER
 18  6 25 13  0  0.0000000  0  9G05G10G16G20G21G26G27G29G31
 132820626.021 7 103496588.61845  25274919.360                    25274914.720
     -2550.617       -1987.496          43.900          30.500



 132827560.629 6 103501990.22845  25276244.600                    25276243.900
      3517.466        2740.889          41.000          32.200    99189415.906 7
  25276243.440        2626.486          42.700


 108305525.512 8  84393918.58547  20609850.020                    20609842.820
      1331.063        1037.191          49.000          47.050



 122285151.058 7  95287127.09545  23270082.560                    23270078.060
      3183.118        2480.353          42.950          34.650



 110676969.966 7  86241798.77747  21061114.400                    21061107.340
      -512.689        -399.499          47.950          47.800



 107042331.610 8  83409610.81248  20369472.020                    20369468.880
      -634.023        -494.045          50.650          49.400    79934216.487 8
  20369469.100        -473.467          53.000


 117679954.970 7  91698672.05447  22393744.600                    22393740.640
      2736.109        2132.033          46.050          42.250    87877894.320 8
  22393742.340        2043.196          50.600


 122546027.714 7  95490392.28146  23319730.760                    23319724.340
     -3011.057       -2346.280          46.400          37.350



 128147841.586 7  99855445.57746  24385726.940                    24385722.800
     -3549.500       -2765.847          44.250          36.400



 18  6 25 13  0 30.0000000  0  9G05G10G16G20G21G26G27G29G31
 132897335.143 6 103556361.90645  25289516.620                    25289511.640
     -2563.245       -1997.338          41.850          31.300



 132722004.103 6 103419738.55045  25256157.860                    25256156.880
      3519.973        2742.841          40.150          31.600    99110591.396 7
  25256156.480        2628.428          42.400


 108265826.893 8  84362984.60547  20602295.680                    20602288.420
      1315.604        1025.146          48.900          47.150



 122189766.525 7  95212801.53046  23251931.680                    23251926.680
      3176.156        2474.931          43.550          37.200



 110692569.526 8  86253954.29147  21064082.920                    21064075.900
      -527.188        -410.796          48.150          47.900



 107061614.101 8  83424636.11948  20373141.220                    20373138.240
      -651.361        -507.555          50.300          49.350    79948615.736 8
  20373138.520        -486.330          52.950


 117597973.387 7  91634790.34247  22378144.000                    22378140.120
      2729.553        2126.926          45.900          43.000    87816674.350 8
  22378141.720        2038.321          50.450


 122636413.875 7  95560822.99446  23336930.480                    23336924.540
     -3014.588       -2349.031          46.000          37.900



 128254348.514 7  99938437.88246  24405994.720                    24405990.680
     -3550.804       -2766.862          43.550          36.150



 18  6 25 13  1  0.0000000  0  9G05G10G16G20G21G26G27G29G31
 132974441.961 6 103616445.15145  25304189.380                    25304183.960
     -2576.893       -2007.970          41.700          30.800



 132616377.021 6 103337431.89645  25236057.540                    25236056.640
      3522.055        2744.462          41.150          31.300    99031714.229 7
  25236056.280        2630.031          44.000


 108226594.432 8  84332413.85647  20594829.960                    20594822.680
      1299.909        1012.917          49.150          46.550



 122094593.458 7  95138640.74045  23233820.980                    23233815.700
      3168.893        2469.271          44.000          35.950



 110708601.096 8  86266446.42847  21067133.660                    21067126.680
      -541.580        -422.009          48.600          47.600



 107081418.827 8  83440068.36348  20376909.840                    20376906.940
      -668.963        -521.270          50.650          49.000    79963404.969 8
  20376907.320        -499.522          53.000


 117516192.258 7  91571064.81947  22362581.560                    22362577.680
      2722.760        2121.633          46.550          42.750    87755604.077 8
  22362579.240        2033.080          50.500


 122726904.327 7  95631334.95145  23354150.020                    23354144.480
     -3017.991       -2351.683          46.550          34.750



 128360901.836 7 100021466.32846  24426271.120                    24426267.120
     -3552.631       -2768.287          42.600          36.950



 18  6 25 13  1 30.0000000  0  9G05G10G16G20G21G26G27G29G31
 133051938.313 6 103676831.88444  25318936.420                    25318931.240
     -2589.513       -2017.799          41.900          28.000



 132510676.423 6 103255067.97045  25215943.200                    25215942.380
      3524.736        2746.555          41.850          32.950    98952782.169 7
  25215942.240        2631.978          44.700


 108187823.966 8  84302203.11147  20587452.120                    20587444.800
      1284.775        1001.125          48.850          46.800



 121999629.129 7  95064642.61945  23215749.980                    23215744.160
      3161.920        2463.837          43.100          35.700



 110725058.538 8  86279270.42047  21070265.440                    21070258.400
      -555.363        -432.749          48.100          47.850



 107101740.241 8  83455903.22948  20380776.780                    20380774.020
      -685.786        -534.378          50.250          49.300    79978580.045 8
  20380774.420        -512.101          53.000


 117434606.781 7  91507491.76647  22347056.340                    22347052.500
      2716.492        2116.750          46.200          43.200    87694679.883 8
  22347053.920        2028.561          50.550


 122817492.591 7  95701923.15846  23371388.260                    23371382.880
     -3021.037       -2354.056          45.900          36.950



 128467493.165 7 100104524.38045  24446554.820                    24446550.860
     -3553.551       -2769.001          42.350          35.250



 18  6 25 13  2  0.0000000  0  9G05G10G16G20G21G26G27G29G31
 133129823.191 7 103737521.39145  25333757.480                    25333752.140
     -2602.383       -2027.831          43.800          30.650



 132404906.616 6 103172650.09045  25195815.700                    25195815.060
      3526.945        2748.277          40.500          33.500    98873798.411 7
  25195815.020        2633.725          43.800


 108149519.077 8  84272355.15047  20580162.920                    20580155.520
      1269.252         989.028          49.050          46.950



 121904878.291 7  94990810.86246  23197719.680                    23197713.660
      3155.255        2458.644          43.950          36.600



 110741942.034 8  86292426.40047  21073478.300                    21073471.160
      -569.661        -443.892          48.250          47.950



 107122580.172 8  83472142.12648  20384742.440                    20384739.680
      -703.061        -547.839          50.550          49.000    79994142.316 8
  20384740.140        -525.062          53.000


 117353219.590 7  91444073.21047  22331568.860                    22331564.900
      2709.827        2111.557          46.800          42.800    87633903.769 8
  22331566.300        2023.550          50.550


 122908179.729 7  95772588.42146  23388645.460                    23388640.140
     -3024.413       -2356.687          46.150          36.550



 128574121.392 7 100187611.19146  24466845.680                    24466841.520
     -3554.643       -2769.855          43.300          36.400



 18  6 25 13  2 30.0000000  0  9G05G10G16G20G21G26G27G29G31
 133208096.450 6 103798513.49444  25348652.480                    25348647.040
     -2615.508       -2038.059          40.950          29.550



 132299072.588 6 103090182.16945  25175675.680                    25175675.140
      3529.231        2750.054          40.900          34.400    98794766.704 7
  25175675.460        2635.466          44.700


 108111683.972 8  84242873.25347  20572963.080                    20572955.680
      1253.609         976.839          49.100          46.800



 121810346.443 7  94917149.72946  23179731.180                    23179724.760
      3147.706        2452.761          44.800          36.650



 110759253.085 8  86305915.53047  21076772.540                    21076765.240
      -583.897        -454.984          48.400          47.550



 107143940.903 8  83488786.83948  20388807.240                    20388804.480
      -720.438        -561.380          50.450          49.300    80010093.495 8
  20388805.020        -537.937          52.950


 117272033.796 7  91380811.56647  22316119.820                    22316115.680
      2703.109        2106.320          47.050          43.050    87573278.030 8
  22316116.900        2018.604          50.500


 122998967.303 7  95843331.95546  23405921.580                    23405916.380
     -3027.687       -2359.237          46.250          37.900



 128680786.284 7 100270726.59945  24487143.520                    24487139.220
     -3555.872       -2770.812          44.200          35.300



 18  6 25 13  3  0.0000000  0  9G05G10G16G20G21G26G27G29G31
 133286750.731 6 103859802.54045  25363620.120                    25363615.200
     -2627.932       -2047.746          40.900          33.750



 132193171.544 6 103007662.08245  25155523.040                    25155522.900
      3531.374        2751.725          40.600          35.700    98715684.978 7
  25155523.160        2637.196          45.450


 108074314.361 8  84213754.08347  20565851.900                    20565844.520
      1238.150         964.791          49.000          47.100



 121716030.935 7  94843657.18745  23161783.700                    23161776.920
      3140.543        2447.178          44.250          35.650



 110776984.897 8  86319732.52847  21080146.820                    21080139.360
      -597.727        -465.762          48.300          47.550



 107165817.122 8  83505833.23148  20392970.220                    20392967.380
      -737.517        -574.689          50.600          49.000    80026429.639 8
  20392967.900        -550.821          53.000


 117191044.892 7  91317703.35447  22300708.120                    22300703.940
      2696.657        2101.292          46.750          42.950    87512799.356 8
  22300705.020        2013.606          50.650


 123089848.874 7  95914148.70246  23423215.540                    23423210.940
     -3030.518       -2361.445          46.350          36.650



 128787479.978 7 100353864.44946  24507446.860                    24507442.360
     -3556.644       -2771.413          43.600          36.550



 18  6 25 13  3 30.0000000  0  9G05G10G16G20G21G26G27G29G31
 133365787.442 6 103921389.57945  25378660.600                    25378655.760
     -2640.850       -2057.814          41.300          31.550



 132087210.241 6 102925094.98745  25135359.120                    25135358.680
      3533.210        2753.153          40.750          32.700    98636558.239 7
  25135359.200        2638.421          45.200


 108037416.143 8  84185002.24347  20558830.400                    20558823.060
      1222.105         952.291          49.150          46.900



 121621939.125 7  94770338.95546  23143878.600                    23143871.740
      3132.631        2441.014          44.000          36.900



 110795140.710 8  86333879.92847  21083601.740                    21083594.240
      -612.114        -476.972          48.250          47.650



 107188212.961 8  83523284.53448  20397232.000                    20397229.160
      -755.082        -588.375          50.450          49.100    80043153.781 8
  20397229.720        -563.794          52.950


 117110257.873 7  91254752.45747  22285334.780                    22285330.680
      2689.620        2095.809          46.750          42.600    87452471.403 8
  22285331.700        2008.532          50.600


 123180828.145 7  95985041.60146  23440528.040                    23440524.120
     -3034.246       -2364.350          45.950          37.700



 128894203.831 7 100437025.76845  24527755.880                    24527751.100
     -3557.672       -2772.218          43.200          33.700



 18  6 25 13  4  0.0000000  0  9G05G10G16G20G21G26G27G29G31
 133445203.440 6 103983272.17544  25393773.320                    25393768.600
     -2653.372       -2067.564          40.900          28.450



 131981190.705 6 102842482.51745  25115184.020                    25115183.420
      3535.263        2754.756          41.000          33.300    98557387.992 7
  25115183.920        2639.810          44.950


 108000990.494 8  84156618.62347  20551898.840                    20551891.480
      1206.592         940.202          49.150          47.250



 121528073.130 7  94697196.67845  23126016.520                    23126009.820
      3125.413        2435.389          45.200          35.300



 110813718.480 8  86348356.11247  21087136.880                    21087129.440
      -626.052        -487.832          48.350          47.250



 107211127.895 8  83541140.30248  20401592.560                    20401589.760
      -772.329        -601.815          50.800          48.900    80060265.563 8
  20401590.300        -576.691          52.950


 117029673.013 7  91191959.09447  22269999.800                    22269995.980
      2683.032        2090.677          47.350          42.800    87392294.442 8
  22269997.040        2003.559          50.700


 123271903.459 7  96056009.31346  23457858.900                    23457855.540
     -3037.148       -2366.610          45.650          37.900



 129000954.824 7 100520208.24745  24548070.080                    24548065.220
     -3558.523       -2772.883          43.100          34.200



 18  6 25 13  4 30.0000000  0  9G05G10G16G20G21G26G27G29G31
 133524996.716 6 104045448.73945  25408957.740                    25408953.300
     -2665.726       -2077.190          41.900          33.950



 131875115.696 6 102759826.83645  25094998.380                    25094997.920
      3536.717        2755.890          41.150          35.050    98478176.308 7
  25094998.260        2641.175          45.600


 107965039.028 8  84128604.50047  20545057.500                    20545050.140
      1190.596         927.737          49.100          46.950



 121434436.614 7  94624233.21146  23108198.100                    23108191.380
      3117.268        2429.041          45.000          37.250



 110832717.417 8  86363160.48147  21090752.200                    21090744.860
      -640.105        -498.783          48.050          47.250



 107234561.982 8  83559400.61848  20406051.980                    20406049.120
      -789.559        -615.240          50.500          49.050    80077765.041 8
  20406049.620        -589.687          52.950


 116949291.310 7  91129324.03447  22254703.640                    22254699.860
      2676.162        2085.323          47.050          43.050    87332269.187 8
  22254701.140        1998.431          50.800


 123363074.165 7  96127051.37246  23475207.880                    23475204.740
     -3040.374       -2369.124          44.850          36.650



 129107730.321 7 100603409.81245  24568388.840                    24568383.980
     -3559.529       -2773.664          42.800          34.200



 18  6 25 13  5  0.0000000  0  9G05G10G16G20G21G26G27G29G31
 133605162.243 6 104107915.37546  25424212.540                    25424208.280
     -2678.789       -2087.370          40.300          36.200



 131768985.496 6 102677128.13445  25074802.300                    25074801.880
      3538.132        2756.992          40.850          34.500    98398923.413 7
  25074802.100        2642.323          44.500


 107929561.154 8  84100959.41547  20538306.320                    20538298.840
      1174.484         915.183          48.950          46.950



 121341029.914 7  94551448.83346  23090423.540                    23090416.640
      3109.546        2423.024          45.450          36.200



 110852134.182 8  86378290.42747  21094447.000                    21094439.740
      -654.341        -509.877          48.100          47.500



 107258512.905 8  83578063.66248  20410609.760                    20410606.820
      -807.104        -628.913          50.550          49.000    80095650.443 8
  20410607.340        -602.659          52.950


 116869111.279 7  91066846.12147  22239445.880                    22239442.100
      2669.190        2079.890          47.100          42.450    87272394.513 8
  22239443.500        1993.315          50.700


 123454337.202 7  96198165.37646  23492574.580                    23492571.600
     -3043.851       -2371.832          44.300          37.750



 129214525.564 7 100686626.76446  24588711.600                    24588706.540
     -3560.445       -2774.376          43.800          36.200



 18  6 25 13  5 30.0000000  0  9G05G10G16G20G21G26G27G29G31
 133685699.324 6 104170671.55545  25439537.920                    25439534.120
     -2690.970       -2096.859          39.900          32.300



 131662804.677 6 102594389.97545  25054596.640                    25054596.220
      3539.631        2758.159          41.050          32.900    98319632.736 7
  25054596.340        2643.228          44.800


 107894560.114 8  84073685.87947  20531645.800                    20531638.360
      1158.304         902.574          49.150          46.850



 121247857.841 7  94478847.29746  23072693.500                    23072686.700
      3101.300        2416.600          45.050          38.500



 110871969.395 8  86393746.43947  21098221.500                    21098214.280
      -668.524        -520.929          48.200          47.250



 107282982.323 8  83597130.73348  20415266.180                    20415263.180
      -824.573        -642.525          50.400          49.000    80113923.068 8
  20415263.640        -615.898          52.900


 116789135.501 7  91004527.36747  22224226.940                    22224223.060
      2662.041        2074.317          47.100          42.250    87212672.394 8
  22224224.640        1987.843          50.750


 123545693.479 7  96269352.02046  23509958.980                    23509955.840
     -3047.130       -2374.390          44.400          37.000



 129321339.415 7 100769858.20545  24609037.960                    24609032.860
     -3561.179       -2774.949          44.200          34.000



 18  6 25 13  6  0.0000000  0  9G05G10G16G20G21G26G27G29G31
 133766606.349 6 104233715.99845  25454933.820                    25454930.400
     -2703.219       -2106.406          41.650          34.300



 131556576.524 6 102511614.91545  25034382.060                    25034381.660
      3541.447        2759.570          41.750          34.700    98240306.665 7
  25034381.540        2644.689          44.850


 107860038.010 8  84046785.54547  20525076.420                    20525069.020
      1142.440         890.214          49.250          47.000



 121154923.994 7  94406431.37246  23055008.720                    23055002.040
      3093.651        2410.641          45.450          37.250



 110892222.241 8  86409527.87447  21102075.500                    21102068.360
      -682.287        -531.651          48.300          47.700



 107307970.750 8  83616602.22248  20420021.300                    20420018.340
      -841.862        -655.996          50.550          49.100    80132583.236 8
  20420018.720        -628.587          52.950


 116709365.429 7  90942368.89847  22209047.160                    22209043.200
      2655.303        2069.069          47.050          42.900    87153103.873 8
  22209044.900        1982.845          50.950


 123637143.038 7  96340611.37846  23527361.260                    23527358.220
     -3050.038       -2376.653          44.050          36.300



 129428169.956 7 100853102.65945  24629367.520                    24629362.140
     -3561.489       -2775.190          44.600          35.400



 18  6 25 13  6 30.0000000  0  9G05G10G16G20G21G26G27G29G31
 133847877.709 7 104297044.30245  25470399.340                    25470395.720
     -2715.051       -2115.622          42.550          32.250



 131450300.612 6 102428802.66045  25014158.520                    25014157.980
      3543.173        2760.920          41.900          34.250    98160944.938 7
  25014157.560        2645.936          44.300


 107825993.541 8  84020257.40647  20518597.980                    20518590.620
      1126.765         878.000          49.250          47.350



 121062228.429 7  94334201.11746  23037369.280                    23037362.600
      3085.766        2404.496          45.950          37.800



 110912888.719 8  86425631.63747  21106008.220                    21106001.080
      -695.744        -542.137          48.200          47.950



 107333475.153 8  83636475.77948  20424874.560                    20424871.680
      -858.779        -669.178          50.300          49.400    80151628.723 8
  20424872.120        -641.185          52.900


 116629799.008 7  90880369.10647  22193906.220                    22193902.120
      2648.792        2063.995          47.100          43.600    87093687.411 8
  22193903.900        1978.051          50.800


 123728682.214 7  96411940.54646  23544780.700                    23544777.720
     -3052.763       -2378.777          44.650          36.800



 129535011.693 7 100936355.85845  24649699.080                    24649693.840
     -3561.560       -2775.244          44.250          34.850



 18  6 25 13  7  0.0000000  0  9G05G10G16G20G21G26G27G29G31
 133929515.352 6 104360658.06845  25485934.640                    25485930.240
     -2727.160       -2125.058          38.250          33.300



 131343984.445 7 102345958.98145  24993927.240                    24993926.420
      3544.467        2761.928          42.000          34.600    98081553.114 7
  24993926.040        2646.802          44.700


 107792433.021 8  83994106.36047  20512211.660                    20512204.260
      1110.594         865.397          49.050          47.650



 120969778.787 7  94262162.50046  23019776.660                    23019770.020
      3077.449        2398.014          45.800          38.750



 110933972.612 8  86442060.64947  21110020.360                    21110013.200
      -709.760        -553.060          48.250          47.650



 107359500.219 8  83656755.04348  20429826.940                    20429824.140
      -876.170        -682.730          50.450          49.050    80171063.019 8
  20429824.480        -654.270          52.950


 116550441.869 7  90818532.40747  22178805.100                    22178800.940
      2641.782        2058.533          47.100          42.700    87034427.249 8
  22178802.640        1972.789          50.900


 123820314.604 7  96483342.35946  23562218.020                    23562214.700
     -3055.835       -2381.172          44.900          37.850



 129641866.654 7 101019619.33845  24670033.240                    24670027.740
     -3562.045       -2775.624          44.200          33.400



 18  6 25 13  7 30.0000000  0  9G05G10G16G20G21G26G27G29G31
 134011512.148 7 104424551.60845  25501538.180                    25501533.520
     -2739.329       -2134.539          42.750          32.350



 131237625.115 6 102263081.69645  24973687.680                    24973687.020
      3545.791        2762.959          41.850          35.650    98002129.049 7
  24973686.420        2647.820          44.650


 107759352.515 8  83968329.34847  20505916.660                    20505909.220
      1094.491         852.852          49.450          47.150



 120877572.605 7  94190313.61146  23002230.320                    23002223.700
      3069.254        2391.631          45.750          37.600



 110955466.609 8  86458809.22247  21114110.520                    21114103.380
      -723.432        -563.712          48.450          47.650



 107386040.248 8  83677435.58348  20434877.320                    20434874.640
      -893.341        -696.109          50.400          49.050    80190881.863 8
  20434874.940        -667.158          52.900


 116471289.253 7  90756855.07547  22163742.860                    22163738.780
      2634.894        2053.167          47.100          43.050    86975319.806 8
  22163740.300        1967.605          50.750


 123912033.654 7  96554811.70446  23579671.860                    23579668.180
     -3058.936       -2383.588          45.650          36.650



 129748726.988 7 101102887.02645  24690368.340                    24690362.380
     -3562.099       -2775.663          43.800          32.850



 18  6 25 13  8  0.0000000  0 10G05G08G10G16G20G21G26G27G29G31
 134093870.562 6 104488726.96545  25517210.560                    25517205.660
     -2751.796       -2144.257          40.050          31.750



 134569056.367 5 104858973.54755  25607639.120                    25607632.400
      3215.453        2505.548          35.550          31.800   100489867.940 6
  25607636.160        2400.852          37.750


 131131231.210 7 102180177.44046  24953441.480                    24953441.020
      3546.629        2763.611          42.400          36.250    97922679.173 7
  24953440.420        2648.452          45.150


 107726759.151 8  83942931.92147  20499714.320                    20499706.880
      1077.846         839.880          49.350          47.200



 120785618.731 7  94118661.30346  22984731.920                    22984725.580
      3060.618        2384.899          46.100          37.050



 110977375.866 8  86475881.36447  21118279.800                    21118272.600
      -737.606        -574.759          48.450          47.350



 107413100.906 8  83698521.80048  20440026.840                    20440024.100
      -911.051        -709.910          50.650          48.450    80211089.491 8
  20440024.460        -680.376          52.900


 116392347.879 7  90695342.34447  22148720.800                    22148716.860
      2627.434        2047.353          46.850          43.550    86916370.113 8
  22148718.180        1962.081          50.800


 124003844.652 7  96626352.68946  23597143.320                    23597139.240
     -3062.220       -2386.147          46.150          36.700



 129855595.699 7 101186161.23245  24710704.860                    24710699.000
     -3562.851       -2776.250          44.000          33.500



 18  6 25 13  8 30.0000000  0  9G05G10G16G20G21G26G27G29G31
 134176581.814 7 104553177.26545  25532950.120                    25532944.840
     -2763.207       -2153.156          43.650          32.600



 131024798.835 6 102097243.22746  24933187.940                    24933187.540
      3547.948        2764.639          41.200          36.800    97843200.550 7
  24933186.940        2649.531          44.750


 107694648.270 8  83917910.46047  20493603.820                    20493596.320
      1062.226         827.708          48.950          47.150



 120693913.475 7  94047202.71546  22967281.000                    22967274.520
      3052.419        2378.512          45.900          37.350



 110999692.404 8  86493270.87247  21122526.580                    21122519.300
      -750.863        -585.088          48.450          47.600



 107440675.509 8  83720008.49748  20445274.160                    20445271.400
      -928.095        -723.190          50.300          48.950    80231680.904 8
  20445271.720        -693.003          52.900


 116313612.071 7  90633989.78747  22133737.880                    22133734.040
      2620.764        2042.154          46.750          44.000    86857573.915 8
  22133735.120        1957.095          50.850


 124095740.264 7  96697959.62846  23614630.880                    23614626.420
     -3064.643       -2388.033          45.650          37.150



 129962463.624 7 101269434.80745  24731041.220                    24731035.400
     -3562.392       -2775.895          44.300          33.350



 18  6 25 13  9  0.0000000  0 10G05G08G10G16G20G21G26G27G29G31
 134259648.528 6 104617904.54544  25548757.120                    25548751.340
     -2775.254       -2162.535          41.600          25.950



 134376136.731 5                  25570929.040
      3213.395                          35.850                   100345810.894 6
  25570927.220        2400.104          38.600


 130918336.055 6 102014285.28646  24912928.680                    24912928.520
      3548.810        2765.309          41.850          36.550    97763699.219 7
  24912927.800        2650.303          44.800


 107663026.325 8  83893269.98747  20487586.300                    20487578.860
      1045.542         814.708          49.150          47.150



 120602465.387 7  93975944.51046  22949878.780                    22949872.480
      3043.693        2371.710          45.650          37.750



 111022420.280 8  86510980.90347  21126851.680                    21126844.280
      -764.729        -595.894          48.600          47.350



 107468769.181 8  83741899.65648  20450620.300                    20450617.440
      -945.473        -736.732          50.700          48.750    80252659.925 8
  20450617.800        -705.942          52.900


 116235087.966 7  90572802.19747  22118795.220                    22118791.360
      2613.728        2036.672          47.050          43.500    86798935.825 8
  22118792.360        1951.776          50.750


 124187725.435 7  96769636.34445  23632135.480                    23632130.500
     -3067.849       -2390.533          45.550          35.900



 130069333.455 7 101352709.84945  24751377.880                    24751372.480
     -3562.512       -2775.986          45.050          34.650



 18  6 25 13  9 30.0000000  0 10G05G08G10G16G20G21G26G27G29G31
 134343065.765 7 104682905.00045  25564630.920                    25564625.380
     -2786.453       -2171.264          43.850          32.900



 134279709.671 6 104633504.24545  25552578.220                    25552577.700
      3213.725        2504.203          38.650          32.850   100273803.801 6
  25552577.120        2400.067          41.900


 130811842.664 6 101931303.53545  24892663.520                    24892663.440
      3550.298        2766.472          41.950          35.050    97684175.041 7
  24892662.920        2651.271          45.850


 107631891.851 8  83869009.36447  20481661.600                    20481654.240
      1029.584         802.273          49.000          47.700



 120511274.236 7  93904886.55046  22932525.380                    22932519.440
      3035.372        2365.227          44.850          39.350



 111045555.521 8  86529008.37447  21131254.240                    21131246.800
      -777.899        -606.155          48.400          47.700



 107497378.900 8  83764192.93548  20456064.600                    20456061.620
      -962.268        -749.819          50.550          48.900    80274024.320 8
  20456062.020        -718.583          52.950


 116156773.583 7  90511778.04047  22103892.320                    22103888.560
      2606.915        2031.363          46.650          43.450    86740454.341 8
  22103889.580        1946.711          50.900


 124279796.068 7  96841379.63946  23649656.180                    23649651.020
     -3070.398       -2392.520          45.050          36.550



 130176199.924 7 101435982.29246  24771713.860                    24771708.640
     -3562.076       -2775.650          44.750          36.050



 18  6 25 13 10  0.0000000  0  9G05G10G16G20G21G26G27G29G31
 134426833.204 6 104748178.37045  25580571.320                    25580566.120
     -2798.276       -2180.466          41.600          31.350



 130705323.854 7 101848301.96046  24872393.440                    24872393.440
      3550.764        2766.832          42.300          37.650    97604631.910 7
  24872393.240        2651.461          46.100


 107601249.043 8  83845131.84747  20475830.500                    20475823.140
      1013.134         789.454          49.050          47.750



 120420345.779 7  93834033.26446  22915222.020                    22915216.380
      3026.273        2358.137          45.150          38.900



 111069099.144 8  86547354.05047  21135734.440                    21135727.020
      -791.865        -617.038          48.500          47.800



 107526506.894 8  83786890.05948  20461607.580                    20461604.420
      -979.870        -763.535          50.800          48.800    80295775.726 8
  20461604.940        -731.721          52.900


 116078672.247 7  90450919.89947  22089029.920                    22089026.320
      2599.489        2025.578          46.750          43.950    86682131.953 8
  22089027.500        1941.231          50.950


 124371954.049 7  96913190.98046  23667193.320                    23667188.120
     -3073.721       -2395.110          44.850          37.550



 130283062.925 7 101519252.02045  24792049.160                    24792044.180
     -3562.180       -2775.729          44.500          34.450



 18  6 25 13 10 30.0000000  0 10G05G08G10G16G20G21G26G27G29G31
 134510942.233 7 104813717.83045  25596576.760                    25596571.700
     -2809.804       -2189.457          44.050          30.400



 134086907.895 6 104483287.71845  25515891.580                    25515890.160
      3212.462        2503.210          41.750          35.300   100129830.831 7
  25515890.020        2398.744          46.050


 130598776.171 6 101765277.89546  24852117.780                    24852118.040
      3551.757        2767.608          41.750          37.100    97525067.209 7
  24852118.000        2652.201          46.650


 107571093.053 8  83821633.66947  20470092.060                    20470084.720
       996.754         776.690          49.050          47.200



 120329676.561 7  93763381.97146  22897968.040                    22897962.360
      3017.627        2351.399          45.200          38.850



 111093044.152 8  86566012.49447  21140290.920                    21140283.580
      -805.048        -627.311          48.350          47.650



 107556146.718 8  83809986.01048  20467247.940                    20467244.640
      -996.783        -776.715          50.750          48.650    80317909.346 8
  20467245.200        -744.460          52.900


 116000778.606 7  90390223.57647  22074207.180                    22074203.560
      2592.708        2020.292          47.600          43.800    86623964.653 8
  22074204.860        1936.048          50.900


 124464192.302 7  96985064.88346  23684745.780                    23684740.180
     -3076.249       -2397.079          44.900          36.350



 130389913.470 7 101602512.04145  24812382.060                    24812377.300
     -3561.627       -2775.299          44.650          33.000



 18  6 25 13 11  0.0000000  0 10G05G08G10G16G20G21G26G27G29G31
 134595400.537 6 104879495.49045  25612648.380                    25612643.820
     -2820.750       -2197.991          41.800          30.950



 133990544.993 5 104408199.82145  25497553.340                    25497552.500
      3211.313        2502.324          35.300          31.950   100057871.563 7
  25497552.840        2398.675          43.400


 130492212.481 6 101682241.39546  24831839.020                    24831839.660
      3552.648        2768.303          41.800          37.750    97445490.576 7
  24831839.500        2653.038          46.800


 107541435.593 8  83798523.97547  20464448.380                    20464441.140
       980.365         763.921          48.900          47.500



 120239279.954 7  93692943.14046  22880765.780                    22880760.380
      3008.980        2344.662          44.250          38.100



 111117399.029 8  86584990.33547  21144925.380                    21144918.100
      -818.461        -637.761          48.200          47.750



 107586308.301 8  83833488.54248  20472987.600                    20472984.120
     -1013.781        -789.959          50.700          48.850    80340432.590 8
  20472984.760        -757.007          52.850


 115923103.704 7  90329697.71547  22059426.120                    22059422.420
      2585.722        2014.850          47.900          44.400    86565960.691 8
  22059423.840        1930.979          50.900


 124556520.393 7  97057008.80546  23702315.300                    23702309.380
     -3078.831       -2399.089          44.950          37.150



 130496759.145 7 101685768.33045  24832714.060                    24832709.180
     -3561.218       -2774.977          44.150          31.800



 18  6 25 13 11 30.0000000  0 11G05G07G08G10G16G20G21G26G27G29G31
 134680202.821 6 104945575.24544  25628785.460                    25628781.120
     -2832.389       -2207.048          39.900          28.900



 136298320.964 5 106206463.89645  25936707.540                    25936697.700
      2971.355        2315.375          35.150          34.250



 133894206.443 6 104333130.81745  25479220.680                    25479220.120
      3210.409        2501.615          37.700          34.200    99985930.503 7
  25479220.200        2397.785          44.000


 130385632.584 6 101599192.22746  24811557.240                    24811558.020
      3552.738        2768.371          41.150          37.500    97365901.812 7
  24811557.840        2653.121          46.700


 107512275.188 8  83775801.57747  20458899.260                    20458892.140
       963.651         750.897          48.700          47.900



 120149156.038 7  93622716.75746  22863615.580                    22863610.240
      2999.434        2337.223          44.900          38.100



 111142159.450 8  86604284.16547  21149637.060                    21149629.820
      -832.245        -648.502          48.400          47.900



 107616988.491 8  83857395.16948  20478825.900                    20478822.320
     -1031.364        -803.660          50.600          48.900    80363343.114 8
  20478823.000        -770.144          52.900


 115845645.516 8  90269340.69847  22044686.420                    22044682.540
      2578.209        2008.995          48.350          43.850    86508118.565 8
  22044684.080        1925.336          51.050


 124648934.356 7  97129019.62046  23719900.960                    23719894.740
     -3082.137       -2401.667          45.750          36.600



 130603594.710 7 101769016.67845  24853044.200                    24853039.620
     -3560.947       -2774.766          44.500          32.300



 18  6 25 13 12  0.0000000  0 10G05G08G10G16G20G21G26G27G29G31
 134765339.690 6                  25644986.380
     -2843.168                          37.100



 133797875.954 6 104258055.74245  25460890.800                    25460890.400
      3210.676        2501.833          38.350          34.950    99914004.657 7
  25460891.000        2397.410          45.900


 130279033.015 6 101516127.74945  24791271.760                    24791272.560
      3553.814        2769.212          40.600          35.000    97286298.385 7
  24791272.520        2653.787          45.950


 107483606.894 8  83753462.65547  20453443.800                    20453436.760
       947.611         738.399          48.700          47.900



 120059301.258 7  93552700.11746  22846516.760                    22846511.480
      2990.979        2330.637          44.650          38.550



 111167318.311 8  86623888.48147  21154424.640                    21154417.460
      -845.076        -658.500          48.350          47.750



 107648180.708 8  83881700.78548  20484761.580                    20484758.040
     -1048.062        -816.672          50.450          49.050    80386635.997 8
  20484758.620        -782.651          52.850


 115768398.597 8  90209148.31647  22029986.960                    22029982.880
      2571.609        2003.853          48.550          43.800    86450434.213 8
  22029984.500        1920.339          51.050


 124741427.544 7  97201092.16646  23737501.720                    23737495.780
     -3084.188       -2403.268          45.650          37.400



 130710411.230 7 101852250.19145  24873370.760                    24873366.360
     -3559.970       -2774.008          43.600          34.350



 18  6 25 13 12 30.0000000  0 11G05G07G08G10G16G20G21G26G27G29G31
 134850766.385 6 105078541.14844  25661250.840                    25661246.740
     -2855.263       -2224.875          41.700          28.050



                                  25902890.340
      2952.801                          39.750



 133701571.673 6 104183083.64045  25442566.340                    25442565.620
      3209.412        2500.844          40.600          33.650    99842091.174 7
  25442566.120        2396.575          46.700


 130172416.674 6 101433050.20346  24770983.180                    24770984.220
      3553.833        2769.224          41.900          36.750    97206682.428 7
  24770983.960        2653.799          46.450


 107455432.573 8  83731508.65147  20448082.400                    20448075.360
       930.664         725.192          49.000          47.600



 119969718.837 7  93482895.69846  22829469.360                    22829464.540
      2980.952        2322.821          44.250          37.900



 111192874.736 8  86643802.58847  21159287.960                    21159280.680
      -858.721        -669.133          48.850          47.500



 107679884.891 8  83906405.33948  20490794.620                    20490791.200
     -1065.642        -830.370          50.750          48.800    80410311.191 8
  20490791.660        -795.778          52.900


 115691363.986 8  90149121.38147  22015327.840                    22015323.680
      2563.898        1997.844          48.800          43.600    86392908.402 8
  22015325.260        1914.638          51.300


 124833999.269 7  97273225.92046  23755117.520                    23755111.640
     -3087.408       -2405.774          45.400          37.100



 130817206.444 7 101935467.10645  24893693.200                    24893689.380
     -3560.002       -2774.031          42.700          31.300



 18  6 25 13 13  0.0000000  0 11G05G07G08G10G16G20G21G26G27G29G31
 134936575.522 6 105145405.42545  25677579.740                    25677575.860
     -2865.669       -2232.980          41.200          30.600



 136032161.952 6                  25886061.480
      2943.479                          37.950



 133605299.849 6 104108066.63645  25424245.840                    25424244.660
      3209.119        2500.616          38.250          34.100    99770199.922 7
  25424245.860        2396.231          44.000


 130065794.929 7 101349968.46946  24750693.640                    24750694.740
      3554.438        2769.697          42.350          36.000    97127062.450 7
  24750694.380        2654.245          46.300


 107427762.050 8  83709947.20448  20442816.920                    20442809.840
       914.190         712.356          48.950          48.150



 119880420.397 7  93413312.56046  22812476.140                    22812471.440
      2972.271        2316.058          45.050          38.550



 111218835.644 8  86664031.86547  21164228.300                    21164220.900
      -871.759        -679.292          48.850          47.750



 107712109.276 8  83931515.23548  20496926.680                    20496923.340
     -1082.362        -843.399          50.650          48.800    80434374.841 8
  20496923.760        -808.235          52.850


 115614551.159 8  90089267.25547  22000710.820                    22000706.660
      2557.197        1992.623          48.650          43.600    86335548.207 8
  22000708.220        1909.615          51.250


 124926657.292 7  97345426.90845  23772749.720                    23772743.920
     -3089.752       -2407.600          45.950          35.350



 130923986.038 7 102018671.82245  24914012.780                    24914009.240
     -3558.618       -2772.954          43.500          34.000



 18  6 25 13 13 30.0000000  0 11G05G07G08G10G16G20G21G26G27G29G31
 135022727.593 6 105212492.42355  25693971.420                    25693961.440
     -2877.944       -2242.554          36.300          30.650



 135943999.730 6 105930402.20444  25869283.620                    25869280.320
      2933.322        2285.705          37.700          29.250



 133509048.629 6 104033065.69145  25405930.020                    25405929.560
      3207.389        2499.265          38.900          35.700    99698324.001 7
  25405929.520        2395.114          44.800


 129959161.799 6 101266877.84845  24730401.980                    24730402.920
      3553.804        2769.203          41.700          35.400    97047433.969 7
  24730402.640        2653.844          46.750


 107400587.883 8  83688772.52347  20437645.880                    20437638.780
       896.900         698.883          48.900          47.850



 119791400.094 7  93343946.10846  22795536.260                    22795531.440
      2962.139        2308.160          44.900          39.100



 111245190.779 8  86684568.32647  21169243.540                    21169236.160
      -885.698        -690.154          48.700          47.700



 107744844.868 8  83957023.45948  20503155.960                    20503152.800
     -1100.417        -857.469          50.550          48.800    80458820.231 8
  20503153.100        -821.779          52.850


 115537952.306 8  90029579.85147  21986134.460                    21986130.260
      2548.954        1986.198          48.650          43.650    86278347.791 8
  21986131.920        1903.442          51.250


 125019392.209 7  97417687.81446  23790396.860                    23790390.860
     -3093.169       -2410.264          46.150          36.900



 131030739.356 7 102101856.04845  24934327.300                    24934323.940
     -3558.830       -2773.116          43.900          31.750



 18  6 25 13 14  0.0000000  0 11G05G07G08G10G16G20G21G26G27G29G31
 135109193.797 6 105279852.72444  25710425.200                    25710422.120
     -2887.643       -2250.098          37.300          27.200



 135856119.990 6 105861924.52645  25852560.520                    25852556.960
      2924.325        2278.695          40.850          34.100



 133412823.139 6 103958084.80945  25387618.520                    25387617.920
      3206.902        2498.879          38.050          33.000    99626467.377 7
  25387618.820        2394.991          45.700


 129852524.275 6 101183783.82145  24710109.380                    24710110.280
      3554.593        2769.820          41.600          35.650    96967802.231 7
  24710110.020        2654.360          46.700


 107373916.234 8  83667989.43447  20432570.540                    20432563.380
       880.687         686.249          48.950          47.750



 119702665.331 7  93274802.19646  22778650.480                    22778645.700
      2953.013        2301.052          44.500          39.050



 111271943.179 8  86705414.36647  21174334.400                    21174326.940
      -898.268        -699.948          48.600          47.700



 107778095.527 8  83982933.06448  20509483.260                    20509480.220
     -1116.933        -870.338          50.300          49.000    80483650.257 8
  20509480.560        -834.130          52.850


 115461572.523 8  89970063.17647  21971599.880                    21971595.620
      2542.259        1980.982          48.650          44.200    86221310.983 8
  21971597.340        1898.395          51.300


 125112207.586 7  97490011.41745  23808059.280                    23808053.080
     -3095.199       -2411.845          46.200          35.900



 131137467.744 7 102185020.89545  24954637.120                    24954633.780
     -3557.170       -2771.825          43.600          32.850



 18  6 25 13 14 30.0000000  0 11G05G07G08G10G16G20G21G26G27G29G31
 135195988.249 7 105347551.70444  25726941.680                    25726938.660
     -2898.557       -2258.628          42.300          28.150



 135768526.231 6 105793669.70944  25835891.600                    25835889.000
      2915.067        2271.485          39.200          28.550



 133316624.699 6 103883125.04145  25369312.460                    25369311.900
      3206.147        2498.299          38.650          35.450    99554630.910 7
  25369312.760        2394.082          45.550


 129745886.550 6 101100689.60045  24689816.740                    24689817.620
      3554.628        2769.844          41.350          35.750    96888170.328 7
  24689817.360        2654.284          46.700


 107347749.303 8  83647599.61947  20427591.140                    20427584.020
       863.690         673.006          48.950          47.850



 119614220.464 7  93205884.18246  22761819.880                    22761815.000
      2943.183        2293.392          44.950          38.900



 111299093.147 8  86726570.19347  21179500.760                    21179493.400
      -911.757        -710.459          48.600          47.550



 107811862.354 8  84009244.85848  20515908.820                    20515905.920
     -1134.326        -883.891          50.500          49.050    80508865.727 8
  20515906.200        -847.081          52.850


 115385414.106 8  89910718.97747  21957107.400                    21957103.180
      2534.795        1975.165          48.750          43.750    86164439.463 8
  21957104.980        1892.872          51.350


 125205104.077 7  97562398.23245  23825737.240                    23825730.600
     -3097.984       -2414.018          46.100          34.950



 131244170.065 7 102268165.48945  24974942.000                    24974938.400
     -3556.283       -2771.131          43.800          31.600



 18  6 25 13 15  0.0000000  0 10G07G08G10G16G20G21G26G27G29G31
 135681213.310 7 105725633.62745  25819276.460                    25819273.320
      2905.966        2264.391          43.150          31.900



 133220446.690 6 103808181.19846  25351010.260                    25351010.160
      3206.159        2498.314          38.000          36.650    99482809.694 7
  25351010.680        2394.062          46.600


 129639243.380 6 101017591.17945  24669523.160                    24669523.900
      3555.075        2770.193          41.700          34.700    96808534.322 7
  24669523.600        2654.897          46.700


 107322080.441 8  83627597.91347  20422706.520                    20422699.400
       847.574         660.448          49.100          47.800



 119526060.294 7  93137187.98546  22745043.740                    22745038.440
      2934.443        2286.581          45.800          36.800



 111326631.148 8  86748028.38547  21184740.960                    21184733.560
      -923.957        -719.966          48.700          47.600



 107846136.867 8  84035952.26748  20522431.060                    20522428.160
     -1150.540        -896.524          50.650          48.700    80534460.321 8
  20522428.520        -859.172          52.850


 115309469.849 8  89851541.66947  21942655.660                    21942651.540
      2528.231        1970.052          48.700          44.050    86107727.874 8
  21942653.320        1888.041          51.300


 125298072.775 7  97634841.32445  23843429.000                    23843422.120
     -3099.734       -2415.381          45.800          34.700



 131350835.424 7 102351281.20845  24995239.640                    24995236.180
     -3554.466       -2769.715          43.850          33.900



 18  6 25 13 15 30.0000000  0 10G07G08G10G16G20G21G26G27G29G31
 135594188.462 6 105657822.06945  25802716.300                    25802712.880
      2895.974        2256.600          40.250          33.250



 133124294.471 6 103733257.39446  25332713.160                    25332712.940
      3204.826        2497.268          40.000          36.500    99411007.759 8
  25332713.900        2393.174          48.550


 129532602.921 6 100934494.84345  24649230.060                    24649230.620
      3554.505        2769.749          41.550          35.500    96728900.384 7
  24649230.400        2654.393          47.200


 107296916.630 8  83607989.75747  20417917.980                    20417910.880
       830.276         646.970          48.800          47.600



 119438193.639 7  93068720.50046  22728323.680                    22728317.780
      2923.996        2278.439          45.850          37.250



 111354561.806 8  86769792.54047  21190055.940                    21190048.580
      -937.455        -730.483          48.650          47.700



 107880924.158 8  84063059.23748  20529050.920                    20529048.000
     -1168.186        -910.274          50.650          48.800    80560437.824 8
  20529048.420        -872.286          52.900


 115233746.125 8  89792536.19547  21928245.820                    21928241.800
      2520.319        1963.887          48.350          44.250    86051180.955 8
  21928243.480        1882.168          51.350


 125391118.512 7  97707344.41445  23861135.180                    23861128.240
     -3102.747       -2417.728          45.550          35.000



 131457467.475 7 102434370.94745  25015530.960                    25015527.860
     -3553.899       -2769.279          42.350          35.050



 18  6 25 13 16  0.0000000  0 10G07G08G10G16G20G21G26G27G29G31
 135507458.345 6 105590240.18745  25786212.280                    25786208.640
      2886.275        2249.047          41.150          30.900



 133028171.779 6 103658356.63745  25314421.540                    25314421.380
      3203.439        2496.188          36.950          33.400    99339227.903 7
  25314422.140        2392.224          45.750


 129425971.183 6 100851405.31246  24628938.700                    24628938.980
      3553.887        2769.265          41.350          36.200    96649272.943 7
  24628938.880        2653.999          47.050


 107272262.466 8  83588778.71548  20413226.360                    20413219.300
       813.268         633.715          48.600          48.000



 119350625.888 7  93000485.96746  22711660.200                    22711654.060
      2913.689        2270.411          45.600          38.100



 111382886.747 8  86791863.92447  21195445.980                    21195438.720
      -950.775        -740.864          48.400          47.900



 107916227.043 8  84090567.96648  20535768.880                    20535766.020
     -1185.356        -923.654          50.550          49.150    80586800.358 8
  20535766.400        -885.229          52.850


 115158246.991 8  89733705.72747  21913878.680                    21913874.800
      2512.874        1958.084          48.300          44.100    85994801.775 8
  21913876.440        1876.401          51.450


 125484243.887 7  97779909.57746  23878856.500                    23878849.560
     -3105.363       -2419.764          45.400          36.000



 131564066.521 6 102517434.97945  25035816.320                    25035813.220
     -3552.913       -2768.511          41.550          33.800



 18  6 25 13 16 30.0000000  0 10G07G08G10G16G20G21G26G27G29G31
 135421020.171 6 105522885.78445  25769763.800                    25769759.900
      2876.025        2241.059          41.350          33.550



 132932074.701 5 103583475.97945  25296134.980                    25296134.600
      3202.869        2495.750          34.600          34.300    99267467.212 7
  25296135.540        2391.532          45.300


 129319346.099 7 100768320.98246  24608648.640                    24608648.760
      3553.975        2769.337          42.350          37.050    96569650.495 7
  24608648.700        2653.855          47.100


 107248114.569 8  83569962.18147  20408631.180                    20408624.120
       796.157         620.384          49.050          47.400



 119263355.422 7  92932483.04346  22695053.520                    22695046.960
      2903.989        2262.851          46.550          38.200



 111411599.538 8  86814237.53447  21200909.760                    21200902.720
      -963.635        -750.883          48.550          47.850



 107952040.194 8  84118474.30748  20542583.980                    20542581.020
     -1202.293        -936.852          50.650          48.900    80613543.931 8
  20542581.480        -897.851          52.850


 115082968.456 8  89675047.15947  21899553.520                    21899549.720
      2505.605        1952.422          48.350          43.650    85938587.322 8
  21899551.380        1870.988          51.400


 125577443.218 7  97852532.37146  23896591.880                    23896585.020
     -3107.971       -2421.796          45.800          36.350



 131670625.303 7 102600467.61645  25056093.900                    25056090.700
     -3551.239       -2767.201          42.200          35.100



 18  6 25 13 17  0.0000000  0 10G07G08G10G16G20G21G26G27G29G31
 135334882.476 6 105455765.46745  25753372.180                    25753368.420
      2866.481        2233.621          41.950          33.700



 132836010.477 6 103508620.72745  25277854.440                    25277853.940
      3201.717        2494.843          37.900          32.850    99195730.974 7
  25277855.360        2391.017          45.750


 129212736.592 7 100685248.76946  24588361.620                    24588361.240
      3553.274        2768.790          42.950          36.700    96490039.643 7
  24588361.360        2653.511          47.400


 107224479.986 8  83551545.61747  20404133.740                    20404126.460
       779.328         607.269          48.950          47.200



 119176391.430 7  92864718.91846  22678505.280                    22678498.280
      2893.745        2254.868          46.750          37.000



 111440704.873 8  86836917.00347  21206448.340                    21206441.300
      -976.607        -760.993          48.700          47.650



 107988369.265 8  84146782.65648  20549497.200                    20549494.240
     -1219.387        -950.171          50.550          48.800    80640672.771 8
  20549494.700        -910.624          52.850


 115007917.500 8  89616565.91347  21885271.740                    21885267.920
      2498.103        1946.575          48.850          43.600    85882542.804 8
  21885269.640        1865.439          51.450


 125670721.763 7  97925216.89345  23914342.200                    23914335.480
     -3110.591       -2423.842          45.350          35.350



 131777147.184 6 102683471.50346  25076364.760                    25076361.240
     -3549.835       -2766.109          41.700          36.500



 18  6 25 13 17 30.0000000  0 10G07G08G10G16G20G21G26G27G29G31
 135249037.992 6 105388873.67445  25737036.400                    25737033.060
      2856.267        2225.663          41.700          34.000



 132739968.810 6 103433783.06245  25259578.480                    25259578.340
      3200.435        2493.847          38.900          34.300    99124011.599 7
  25259579.380        2390.033          46.300


 129106135.266 7 100602182.90046  24568076.060                    24568075.360
      3553.151        2768.692          42.550          37.500    96410434.907 7
  24568075.680        2653.052          47.250


 107201349.979 8  83533522.23747  20399732.280                    20399724.880
       762.037         593.796          49.000          47.650



 119089726.530 7  92797187.88746  22662013.600                    22662006.340
      2883.577        2246.944          46.300          37.700



 111470191.676 8  86859893.73347  21212059.620                    21212052.320
      -989.529        -771.062          49.000          47.550



 108025203.732 8  84175484.83048  20556506.540                    20556503.560
     -1236.571        -963.562          50.650          48.700    80668179.017 8
  20556504.040        -923.457          52.850


 114933084.954 8  89558254.85947  21871031.600                    21871027.600
      2490.332        1940.519          48.950          44.000    85826661.389 8
  21871029.460        1859.647          51.400


 125764068.994 7  97997954.93646  23932105.540                    23932099.120
     -3113.208       -2425.878          45.100          36.800



 131883619.812 7 102766437.01446  25096626.120                    25096622.480
     -3548.724       -2765.245          42.950          36.600



 18  6 25 13 18  0.0000000  0 10G07G08G10G16G20G21G26G27G29G31
 135163499.652 6 105322220.42644  25720758.660                    25720754.780
      2846.284        2217.883          38.550          29.950



 132643960.973 6 103358971.83645  25241308.940                    25241307.920
      3199.689        2493.263          39.500          30.550    99052317.505 7
  25241309.760        2389.315          45.650


 128999555.427 7 100519133.77146  24547794.580                    24547793.800
      3552.374        2768.088          42.550          36.550    96330846.169 7
  24547794.180        2652.739          47.800


 107178736.356 8  83515901.22947  20395429.140                    20395421.600
       745.154         580.640          48.850          47.700



 119003374.248 7  92729900.41646  22645581.380                    22645574.020
      2873.193        2238.854          46.900          37.800



 111500068.696 8  86883174.53247  21217745.200                    21217737.640
     -1002.311        -781.021          48.800          47.700



 108062553.534 8  84204588.56048  20563613.940                    20563611.000
     -1253.412        -976.686          50.450          48.850    80696070.086 8
  20563611.440        -936.038          52.850


 114858482.080 8  89500122.76947  21856835.180                    21856831.040
      2483.028        1934.828          49.100          43.700    85770951.468 8
  21856832.860        1854.221          51.400


 125857494.476 7  98070753.94045  23949883.620                    23949877.540
     -3115.335       -2427.533          45.250          35.500



 131990050.863 7 102849370.15445  25116879.520                    25116875.720
     -3546.842       -2763.780          42.550          33.950



 18  6 25 13 18 30.0000000  0 10G07G08G10G16G20G21G26G27G29G31
 135078260.535 6 105255800.31045  25704538.000                    25704534.280
      2836.621        2210.354          38.100          30.500



 132547978.788 6 103284180.56045  25223044.300                    25223043.080
      3198.499        2492.343          38.050          32.450    98980642.524 7
  25223044.720        2388.737          44.900


 128892990.580 7 100436096.33746  24527516.000                    24527515.180
      3551.629        2767.507          42.800          38.700    96251268.651 7
  24527515.640        2652.233          47.750


 107156631.122 8  83498676.37847  20391222.620                    20391215.160
       728.029         567.295          49.000          47.850



 118917328.024 7  92662851.45446  22629207.380                    22629199.980
      2862.756        2230.722          46.450          38.450



 111530325.362 8  86906751.15147  21223502.900                    21223495.220
     -1015.160        -791.034          48.900          47.800



 108100408.876 8  84234086.21848  20570817.580                    20570814.640
     -1270.491        -989.993          50.650          48.750    80724338.671 8
  20570815.020        -948.737          52.800


 114784100.450 8  89442163.07247  21842680.940                    21842676.660
      2475.424        1928.901          49.200          44.100    85715406.766 8
  21842678.420        1848.575          51.400


 125950988.262 7  98143606.16245  23967674.740                    23967668.800
     -3117.884       -2429.523          45.350          35.400



 132096428.827 7 102932261.95045  25137122.860                    25137118.980
     -3545.133       -2762.446          42.350          32.500



 18  6 25 13 19  0.0000000  0 10G07G08G10G16G20G21G26G27G29G31
 134993330.520 6 105189621.13345  25688376.380                    25688372.580
      2825.628        2201.790          37.800          34.050



 132452029.465 6 103209414.92445  25204786.080                    25204784.640
      3197.760        2491.760          39.650          33.650    98908992.146 7
  25204786.140        2387.804          46.300


 128786450.950 7 100353078.59346  24507242.040                    24507241.280
      3550.839        2766.893          42.450          38.050    96171709.997 7
  24507241.700        2651.490          47.900


 107135042.909 8  83481854.38947  20387114.440                    20387107.080
       710.730         553.815          48.800          47.600



 118831598.119 7  92596048.96146  22612893.340                    22612885.880
      2852.053        2222.380          46.150          39.300



 111560967.873 8  86930628.43447  21229333.960                    21229326.300
     -1028.042        -801.071          49.000          47.600



 108138776.536 8  84263983.07848  20578118.660                    20578115.740
     -1287.642       -1003.357          50.350          48.750    80752989.828 8
  20578116.140        -961.589          52.800


 114709948.287 8  89384382.18247  21828570.340                    21828565.940
      2467.874        1923.020          49.150          44.250    85660033.429 8
  21828567.780        1842.734          51.450


 126044557.222 7  98216516.97845  23985480.300                    23985474.340
     -3120.410       -2431.489          45.700          35.600



 132202758.340 6 103015115.99145  25157356.600                    25157353.100
     -3543.750       -2761.367          41.700          32.300



 18  6 25 13 19 30.0000000  0 10G07G08G10G16G20G21G26G27G29G31
 134908709.089 5 105123682.48644  25672273.060                    25672269.100
      2816.283        2194.520          31.950          29.900



 132356110.908 6 103134673.22245  25186533.580                    25186531.460
      3196.795        2491.012          38.800          31.300    98837364.690 7
  25186533.180        2387.437          46.150


 128679936.205 7 100270080.23246  24486972.860                    24486972.120
      3550.323        2766.491          42.350          36.250    96092169.948 7
  24486972.480        2651.129          47.850


 107113969.867 8  83465433.84147  20383104.280                    20383097.100
       693.971         540.757          48.850          47.850



 118746184.730 7  92529493.11646  22596639.480                    22596632.280
      2841.946        2214.505          46.700          37.100



 111591991.540 8  86954802.71447  21235237.580                    21235229.940
     -1040.218        -810.560          49.050          47.500



 108177653.023 8  84294276.42848  20585516.580                    20585513.700
     -1304.303       -1016.341          50.550          48.550    80782020.956 8
  20585514.040        -974.000          52.800


 114636023.509 8  89326778.47347  21814503.020                    21814498.500
      2460.499        1917.272          49.250          43.800    85604829.875 8
  21814500.440        1837.355          51.550


 126138197.096 7  98289483.03845  24003299.300                    24003293.380
     -3122.476       -2433.101          45.950          34.700



 132309033.938 7 103097927.99844  25177580.260                    25177576.820
     -3541.027       -2759.242          42.750          29.650



 18  6 25 13 20  0.0000000  0 10G07G08G10G16G20G21G26G27G29G31
 134824401.057 6 105057987.89244  25656229.320                    25656226.000
      2805.100        2185.796          38.200          27.550



 132260225.897 6 103059957.69245  25168287.420                    25168285.200
      3196.271        2490.596          39.550          33.700    98765762.360 7
  25168286.760        2386.487          46.300


 128573451.449 7 100187105.23246  24466709.460                    24466708.780
      3549.382        2765.756          42.250          37.300    96012652.248 8
  24466709.160        2650.513          48.050


 107093415.492 8  83449417.45047  20379192.880                    20379185.800
       676.888         527.444          48.850          47.750



 118661092.676 7  92463187.66546  22580446.760                    22580439.840
      2831.348        2206.246          46.250          38.100



 111623397.361 8  86979274.79047  21241213.900                    21241206.260
     -1052.738        -820.315          48.950          47.400



 108217039.927 8  84324967.50748  20593011.620                    20593008.740
     -1320.869       -1029.250          50.500          48.700    80811433.230 8
  20593009.100        -986.393          52.800


 114562329.120 8  89269354.30947  21800479.460                    21800474.940
      2453.051        1911.470          49.200          43.600    85549798.383 8
  21800476.940        1831.867          51.600


 126231909.397 7  98362505.55945  24021132.240                    24021126.280
     -3124.488       -2434.667          45.800          33.050



 132415255.447 7 103180697.82945  25197793.660                    25197790.140
     -3539.427       -2757.999          42.400          31.050



 18  6 25 13 20 30.0000000  0 10G07G08G10G16G20G21G26G27G29G31
 134740402.560 6 104992534.52444  25640244.780                    25640241.240
      2794.821        2177.783          39.000          27.900



 132164369.247 6 102985264.28245  25150046.620                    25150044.160
      3194.810        2489.467          39.600          31.850    98694181.160 7
  25150045.720        2385.604          46.100


 128466993.413 6 100104151.02146  24446450.980                    24446450.540
      3548.226        2764.854          41.950          37.350    95933154.515 7
  24446451.040        2649.617          47.600


 107073374.707 8  83433801.25247  20375379.260                    20375372.180
       659.322         513.758          48.850          47.750



 118576319.095 7  92397130.36846  22564314.480                    22564308.080
      2820.301        2197.639          45.600          38.650



 111655177.992 8  87004038.91847  21247261.520                    21247253.960
     -1065.778        -830.477          49.000          46.950



 108256930.751 8  84356051.24448  20600602.540                    20600599.800
     -1338.126       -1042.696          50.400          48.700    80841221.819 8
  20600600.080        -999.235          52.700


 114488860.066 8  89212105.70647  21786498.780                    21786494.300
      2445.015        1905.207          49.250          44.050    85494935.159 8
  21786496.240        1825.942          51.350


 126325687.875 7  98435579.64045  24038977.700                    24038972.080
     -3127.166       -2436.754          45.200          34.700



 132521413.984 7 103263418.57245  25217994.920                    25217991.400
     -3537.856       -2756.777          42.500          35.250



 18  6 25 13 21  0.0000000  0 10G07G08G10G16G20G21G26G27G29G31
 134656723.012 6 104927329.63844  25624321.400                    25624317.780
      2784.133        2169.448          39.550          28.950



 132068548.244 6 102910598.64845  25131812.520                    25131810.280
      3193.660        2488.574          39.600          32.500    98622626.582 7
  25131811.340        2384.811          45.700


 128360571.486 7 100021224.95846  24426199.440                    24426199.040
      3546.663        2763.636          42.700          37.150    95853683.705 7
  24426199.500        2648.673          47.750


 107053855.677 8  83418591.62247  20371664.880                    20371657.840
       641.958         500.227          48.800          47.700



 118491873.205 7  92331328.42146  22548244.620                    22548238.740
      2809.359        2189.113          45.800          39.850



 111687338.278 8  87029098.88847  21253381.360                    21253373.860
     -1078.338        -840.263          48.900          47.300



 108297331.367 8  84387532.23948  20608290.520                    20608287.800
     -1355.215       -1056.013          50.500          48.750    80871391.096 8
  20608288.020       -1011.926          52.750


 114415623.693 8  89155038.43147  21772562.360                    21772557.900
      2437.127        1899.061          49.300          44.000    85440245.685 8
  21772559.660        1820.125          51.400


 126419538.323 7  98508709.82545  24056836.920                    24056831.160
     -3129.537       -2438.602          45.650          34.250



 132627514.236 7 103346093.90645  25238185.120                    25238181.800
     -3535.797       -2755.172          42.050          34.950



 18  6 25 13 21 30.0000000  0 10G07G08G10G16G20G21G26G27G29G31
 134573361.384 6 104862372.53944  25608458.480                    25608454.760
      2773.639        2161.278          40.350          28.900



 131972759.697 6 102835958.23645  25113584.380                    25113581.700
      3192.502        2487.661          38.950          30.700    98551096.238 7
  25113582.940        2384.151          45.600


 128254184.851 7  99938326.37046  24405954.660                    24405954.460
      3546.052        2763.159          42.650          39.000    95774239.248 7
  24405954.580        2647.893          47.800


 107034855.778 8  83403786.50648  20368049.300                    20368042.300
       625.102         487.092          48.700          48.350



 118407754.176 7  92265781.14646  22532236.980                    22532231.460
      2798.757        2180.851          45.400          39.650



 111719873.275 8  87054450.83547  21259572.460                    21259565.120
     -1090.328        -849.607          48.700          47.900



 108338237.551 8  84419407.17148  20616074.720                    20616072.080
     -1371.633       -1068.805          50.550          49.000    80901937.914 8
  20616072.280       -1024.351          52.750


 114342617.243 8  89098150.31847  21758669.580                    21758665.180
      2429.986        1893.497          49.000          44.400    85385727.918 8
  21758666.780        1814.553          51.350


 126513456.270 7  98581892.57546  24074708.960                    24074703.480
     -3131.358       -2440.022          44.750          36.150



 132733550.084 6 103428719.05645  25258363.020                    25258359.860
     -3533.146       -2753.103          41.500          34.850



 18  6 25 13 22  0.0000000  0 10G07G08G10G16G20G21G26G27G29G31
 134490319.348 7 104797664.47444  25592656.700                    25592652.400
      2763.152        2153.112          42.550          29.500



 131877003.812 6 102761343.32645  25095362.640                    25095360.180
      3191.682        2487.029          39.350          32.150    98479590.289 7
  25095360.680        2383.371          45.700


 128147836.044 6  99855457.28646  24385717.120                    24385716.860
      3544.391        2761.868          41.950          37.900    95694823.053 7
  24385716.960        2646.929          47.800


 107016375.632 8  83389386.39647  20364532.660                    20364525.720
       607.620         473.472          48.700          47.900



 118323964.617 7  92200490.64446  22516292.080                    22516287.020
      2787.715        2172.248          45.550          39.200



 111752781.150 8  87080093.34447  21265834.600                    21265827.360
     -1102.754        -859.287          48.650          47.800



 108379648.355 8  84451675.32048  20623955.040                    20623952.300
     -1388.408       -1081.875          50.500          48.350    80932861.555 8
  20623952.480       -1036.866          52.700


 114269841.313 8  89041441.82647  21744820.620                    21744816.380
      2422.267        1887.482          48.950          44.100    85331382.282 8
  21744817.860        1808.886          51.250


 126607440.653 7  98655127.11045  24092593.500                    24092588.400
     -3133.610       -2441.775          45.000          35.100



 132839518.255 6 103511291.41245  25278527.880                    25278525.120
     -3530.948       -2751.396          40.300          34.800



 18  6 25 13 22 30.0000000  0 10G07G08G10G16G20G21G26G27G29G31
 134407601.950 6 104733209.36645  25576916.660                    25576911.560
      2751.799        2144.258          41.800          30.400



 131781283.580 6 102686756.17645  25077147.480                    25077145.360
      3189.871        2485.611          39.900          33.850    98408110.952 7
  25077145.620        2382.049          45.950


 128041530.192 7  99772621.67646  24365487.740                    24365487.360
      3542.781        2760.614          42.300          37.750    95615438.962 8
  24365487.440        2645.519          48.100


 106998418.892 8  83375394.11848  20361115.640                    20361108.660
       589.762         459.555          48.900          48.200



 118240509.864 7  92135460.99346  22500411.100                    22500406.280
      2776.129        2163.218          45.800          39.900



 111786063.200 8  87106027.40647  21272167.980                    21272160.880
     -1115.642        -869.330          49.000          47.650



 108421565.431 8  84484337.95948  20631931.700                    20631928.860
     -1405.751       -1095.391          50.700          48.550    80964163.246 8
  20631929.140       -1049.718          52.750


 114197299.061 8  88984915.41547  21731016.220                    21731012.060
      2414.179        1881.179          49.350          44.250    85277211.151 8
  21731013.580        1802.730          51.450


 126701492.800 7  98728414.41446  24110490.920                    24110486.260
     -3136.322       -2443.891          44.550          37.450



 132945418.952 6 103593811.18945  25298680.240                    25298677.540
     -3528.841       -2749.751          40.500          35.950



 18  6 25 13 23  0.0000000  0 10G07G08G10G16G20G21G26G27G29G31
 134325207.946 7 104669006.24344  25561238.140                    25561232.380
      2741.188        2135.996          43.100          28.850



 131685596.021 6 102612194.51345  25058938.580                    25058936.920
      3189.065        2484.987          40.800          34.250    98336656.011 7
  25058936.720        2381.423          46.250


 127935266.494 7  99689818.90146  24345266.300                    24345265.960
      3541.164        2759.350          42.200          38.500    95536086.316 8
  24345265.800        2644.572          48.100


 106980983.328 8  83361807.96348  20357797.740                    20357790.780
       572.413         446.037          48.750          48.250



 118157388.855 7  92070691.42346  22484593.780                    22484588.800
      2765.170        2154.680          46.000          40.300



 111819713.741 8  87132248.61347  21278571.540                    21278564.520
     -1127.849        -878.843          48.900          47.900



 108463984.519 8  84517391.77348  20640003.940                    20640000.960
     -1422.313       -1108.297          50.600          48.600    80995839.814 8
  20640001.300       -1062.102          52.750


 114124987.721 8  88928568.94047  21717255.800                    21717251.700
      2406.507        1875.201          49.750          44.650    85223212.455 8
  21717253.360        1797.067          51.400


 126795608.867 7  98801751.52946  24128400.340                    24128396.180
     -3138.553       -2445.628          44.250          36.100



 133051246.083 6 103676273.66845  25318818.860                    25318815.800
     -3526.318       -2747.793          39.800          35.100



 18  6 25 13 23 30.0000000  0 10G07G08G10G16G20G21G26G27G29G31
 134243146.348 7 104605062.19745  25545622.600                    25545616.840
      2730.035        2127.308          42.400          33.000



 131589948.324 6 102537663.87945  25040737.200                    25040735.180
      3187.848        2484.035          40.400          34.150    98265230.834 7
  25040735.260        2380.511          45.550


 127829054.181 6  99607056.17746  24325054.600                    24325054.460
      3539.623        2758.153          41.800          38.550    95456772.060 8
  24325054.020        2643.236          48.000


 106964075.879 8  83348633.31748  20354580.380                    20354573.400
       554.742         432.266          48.750          48.250



 118074611.108 7  92006189.31146  22468841.840                    22468836.820
      2753.632        2145.688          45.900          39.700



 111853738.275 8  87158761.23147  21285046.160                    21285039.140
     -1140.283        -888.533          48.700          47.900



 108506911.341 8  84550841.22448  20648172.740                    20648169.620
     -1439.163       -1121.428          50.600          48.550    81027895.534 8
  20648170.040       -1074.725          52.700


 114052914.592 8  88872408.07547  21703540.820                    21703536.620
      2398.595        1869.035          49.750          44.650    85169391.631 8
  21703538.360        1791.116          51.300


 126889794.445 7  98875142.80246  24146323.140                    24146319.260
     -3140.751       -2447.343          44.600          37.350



 133157003.440 6 103758681.77745  25338944.000                    25338940.640
     -3524.019       -2745.995          41.550          30.750



 18  6 25 13 24  0.0000000  0 10G07G08G10G16G20G21G26G27G29G31
 134161411.754 7 104541372.93045  25530069.240                    25530063.260
      2719.052        2118.743          42.900          32.050



 131494333.364 6 102463158.76045  25022542.180                    25022540.320
      3186.367        2482.881          40.500          31.700    98193830.127 7
  25022540.000        2379.494          45.250


 127722888.321 7  99524329.62645  24304851.720                    24304851.660
      3538.158        2757.009          42.600          35.950    95377492.499 8
  24304851.080        2641.875          48.050


 106947690.127 8  83335865.20048  20351462.360                    20351455.280
       537.352         418.716          48.850          48.400



 117992171.665 7  91941950.82046  22453154.320                    22453149.100
      2742.248        2136.817          46.700          40.000



 111888127.366 8  87185557.93847  21291590.200                    21291583.060
     -1152.329        -897.919          48.850          47.650



 108550337.443 8  84584679.73348  20656436.520                    20656433.320
     -1455.850       -1134.430          50.650          48.400    81060324.101 8
  20656433.800       -1087.272          52.750


 113981072.839 8  88816427.50047  21689869.880                    21689865.620
      2390.807        1862.966          49.850          44.750    85115743.590 8
  21689867.260        1785.287          51.250


 126984041.249 7  98948581.82345  24164257.700                    24164253.920
     -3142.627       -2448.803          45.250          33.650



 133262680.619 7 103841027.39645  25359054.100                    25359050.560
     -3520.990       -2743.636          42.950          31.650



 18  6 25 13 24 30.0000000  0 10G07G08G10G16G20G21G26G27G29G31
 134080012.697 7 104477945.10045  25514579.520                    25514573.380
      2707.593        2109.815          43.150          31.200



 131398757.435 6 102388684.06645  25004354.600                    25004352.300
      3185.066        2481.866          40.200          34.700    98122458.549 7
  25004352.380        2378.519          45.750


 127616777.591 7  99441646.04946  24284659.420                    24284659.340
      3536.045        2755.363          42.900          37.000    95298254.082 8
  24284658.580        2640.560          48.200


 106931832.949 8  83323508.95248  20348444.880                    20348437.780
       519.841         405.071          48.650          48.400



 117910078.819 7  91877982.40046  22437532.760                    22437527.240
      2730.592        2127.736          46.150          40.700



 111922885.466 8  87212642.16947  21298204.420                    21298197.160
     -1164.663        -907.529          48.700          47.950



 108594267.863 8  84618911.21548  20664796.260                    20664793.020
     -1472.792       -1147.630          50.350          48.700    81093129.257 8
  20664793.480       -1099.785          52.750


 113909469.108 8  88760632.40247  21676244.180                    21676239.820
      2382.802        1856.729          49.600          45.250    85062273.277 8
  21676241.340        1779.383          51.250


 127078354.011 7  99022072.25246  24182204.920                    24182201.000
     -3144.777       -2450.478          45.800          37.400



 133368281.185 7 103923313.32845  25379149.620                    25379145.840
     -3518.716       -2741.861          44.300          32.700



 18  6 25 13 25  0.0000000  0 10G07G08G10G16G20G21G26G27G29G31
 133998950.317 7 104414779.64844  25499153.880                    25499147.960
      2696.358        2101.055          42.800          27.450



 131303220.168 6 102314239.49945  24986174.320                    24986172.100
      3183.832        2480.909          41.900          34.550    98051115.839 7
  24986172.600        2377.499          46.800


 127510723.518 7  99359006.62146  24264478.000                    24264477.840
      3533.988        2753.761          42.300          38.500    95219058.001 7
  24264476.900        2639.033          47.700


 106916504.113 8  83311564.40748  20345527.920                    20345520.840
       502.056         391.213          48.700          48.050



 117828334.462 7  91814285.52946  22421977.400                    22421971.780
      2718.785        2118.535          46.250          40.550



 111958009.592 8  87240011.62347  21304888.360                    21304881.000
     -1176.986        -917.133          48.750          47.000



 108638700.675 8  84653534.16548  20673251.540                    20673248.340
     -1489.724       -1160.824          50.500          48.250    81126309.579 8
  20673248.720       -1112.335          52.700


 113838102.991 8  88705022.45347  21662663.640                    21662659.180
      2374.793        1850.488          49.550          44.700    85008980.418 8
  21662660.640        1773.423          51.150


 127172731.111 7  99095612.78446  24200164.380                    24200160.300
     -3147.168       -2452.341          46.150          37.300



 133473801.898 7 104005537.03245  25399229.840                    25399226.180
     -3515.907       -2739.676          44.650          32.900



 18  6 25 13 25 30.0000000  0 10G07G08G10G16G20G21G26G27G29G31
 133918226.141 7 104351877.71745  25483792.520                    25483786.600
      2685.177        2092.349          45.950          31.200



 131207721.073 6 102239824.67145  24968001.200                    24967998.960
      3183.014        2480.271          40.200          33.800    97979801.656 7
  24967999.840        2376.795          46.650


 127404728.163 7  99276412.96046  24244307.660                    24244307.400
      3532.326        2752.465          42.200          39.200    95139905.760 7
  24244306.500        2637.727          47.850


 106901704.307 8  83300032.09648  20342711.520                    20342704.520
       484.655         377.653          48.650          48.350



 117746940.471 7  91750861.69546  22406488.720                    22406483.080
      2707.263        2109.558          46.600          41.150



 111993497.632 8  87267664.64147  21311641.480                    21311634.220
     -1188.854        -926.380          48.900          47.050



 108683634.263 8  84688547.33648  20681802.100                    20681799.000
     -1506.071       -1173.562          50.400          48.650    81159863.862 8
  20681799.240       -1124.633          52.750


 113766974.567 8  88649597.72947  21649128.360                    21649123.800
      2367.019        1844.431          49.600          45.400    84955865.056 8
  21649125.260        1767.628          51.350


 127267170.752 7  99169202.05346  24218135.780                    24218131.580
     -3148.803       -2453.612          46.250          36.700



 133579238.845 7 104087695.44145  25419294.220                    25419290.400
     -3513.095       -2737.485          45.350          34.500



 18  6 25 13 26  0.0000000  0 10G07G08G10G16G20G21G26G27G29G31
 133837839.409 7 104289238.72945  25468495.320                    25468489.600
      2673.949        2083.600          45.400          32.100



 131112258.046 6 102165437.94245  24949835.040                    24949833.040
      3181.485        2479.079          40.800          35.200    97908514.388 7
  24949833.880        2375.925          45.900


 127298791.433 6  99193864.96146  24224148.500                    24224148.220
      3530.289        2750.879          41.800          38.300    95060797.296 7
  24224147.360        2636.238          47.650


 106887431.066 8  83288910.08848  20339995.400                    20339988.300
       466.966         363.870          48.800          48.100



 117665896.767 7  91687710.78246  22391066.720                    22391060.920
      2695.650        2100.508          46.550          40.600



 112029345.298 8  87295597.88547  21318463.040                    21318455.760
     -1200.760        -935.656          48.700          46.700



 108729064.901 8  84723947.81148  20690447.200                    20690444.220
     -1522.569       -1186.418          50.400          48.300    81193789.321 8
  20690444.380       -1136.980          52.700


 113696081.721 8  88594356.56547  21635637.860                    21635633.320
      2359.210        1838.346          49.200          45.000    84902925.620 8
  21635634.900        1761.731          51.400


 127361669.664 7  99242837.50946  24236118.460                    24236114.220
     -3150.889       -2455.239          45.800          36.750



 133684587.119 7 104169784.77045  25439341.500                    25439337.780
     -3509.998       -2735.067          44.200          33.600



 18  6 25 13 26 30.0000000  0 10G07G08G10G16G20G21G26G27G29G31
 133757799.890 7 104226870.31645  25453264.200                    25453258.600
      2661.850        2074.171          44.700          32.300



 131016839.120 6 102091085.56945  24931677.380                    24931675.300
      3179.624        2477.628          41.450          31.900    97837260.028 7
  24931676.260        2374.336          46.700


 127192923.380 7  99111370.49546  24204002.440                    24204002.100
      3527.515        2748.719          42.150          38.450    94981740.114 7
  24204001.240        2634.157          47.950


 106873692.640 8  83278204.82548  20337381.120                    20337373.900
       448.606         349.563          48.450          48.250



 117585213.446 7  91624840.70346  22375713.140                    22375707.300
      2683.065        2090.702          46.350          40.950



 112065558.239 8  87323815.77147  21325354.060                    21325346.760
     -1213.543        -945.617          48.350          47.500



 108774999.030 8  84759740.62448  20699188.180                    20699185.260
     -1539.910       -1199.931          50.500          48.550    81228090.753 8
  20699185.280       -1149.817          52.700


 113625432.586 8  88539305.31547  21622193.700                    21622189.300
      2350.608        1831.645          49.100          45.600    84850168.169 8
  21622190.880        1755.380          51.400


 127456233.940 7  99316523.90745  24254113.360                    24254109.240
     -3153.526       -2457.294          44.800          33.900



 133789851.208 7 104251808.43845  25459372.600                    25459369.200
     -3507.735       -2733.307          42.900          34.500



 18  6 25 13 27  0.0000000  0 10G07G08G10G16G20G21G26G27G29G31
 133678103.486 7 104164769.22845  25438098.440                    25438092.840
      2650.477        2065.309          44.050          32.100



 130921457.964 6 102016762.69945  24913526.920                    24913524.880
      3178.496        2476.754          39.950          34.350    97766033.926 7
  24913526.060        2373.542          46.850


 127087120.225 6  99028926.59146  24183868.620                    24183868.220
      3525.324        2747.011          41.750          38.500    94902731.388 8
  24183867.380        2632.535          48.100


 106860483.854 8  83267912.26648  20334867.660                    20334860.280
       431.090         335.914          48.550          48.150



 117504886.548 7  91562248.34746  22360427.460                    22360421.620
      2671.278        2081.516          46.300          41.500



 112102128.296 8  87352311.90947  21332313.020                    21332305.740
     -1225.219        -954.717          48.450          47.200



 108821429.236 8  84795919.98748  20708023.580                    20708020.680
     -1556.199       -1212.624          50.400          48.600    81262762.638 8
  20708020.660       -1162.104          52.650


 113555021.445 8  88484439.51847  21608794.820                    21608790.600
      2342.707        1825.486          49.100          45.850    84797588.445 8
  21608792.040        1749.412          51.350


 127550856.566 7  99390255.75445  24272119.260                    24272115.480
     -3155.310       -2458.685          44.000          35.800



 133895021.975 7 104333759.40245  25479386.120                    25479382.600
     -3504.502       -2730.787          42.850          31.450



 18  6 25 13 27 30.0000000  0 10G07G08G10G16G20G21G26G27G29G31
 133598756.457 7 104102940.37344  25422999.160                    25422993.180
      2638.922        2056.299          43.700          29.900



 130826119.058 6 101942472.71045  24895384.480                    24895382.760
      3177.117        2475.678          40.500          34.150    97694839.362 7
  24895383.700        2372.516          47.700


 126981388.688 6  98946538.48346  24163748.420                    24163748.160
      3523.044        2745.232          41.800          39.600    94823776.157 8
  24163747.320        2630.780          48.250


 106847809.055 8  83258035.80048  20332455.740                    20332448.400
       413.582         322.271          48.750          48.350



 117424922.531 7  91499938.75646  22345210.560                    22345204.920
      2659.396        2072.258          46.050          41.600



 112139057.895 8  87381088.22247  21339340.460                    21339333.120
     -1237.071        -963.951          48.600          47.200



 108868358.526 8  84832488.25548  20716954.000                    20716951.000
     -1572.687       -1225.471          50.400          49.000    81297807.225 8
  20716951.060       -1174.414          52.650


 113484852.940 8  88429762.79447  21595442.100                    21595438.080
      2334.812        1819.336          49.200          46.050    84745189.921 8
  21595439.440        1743.451          51.400


 127645540.789 7  99464035.59046  24290136.900                    24290133.080
     -3157.280       -2460.220          43.950          36.450



 134000101.504 6 104415639.30945  25499382.420                    25499378.560
     -3501.075       -2728.117          40.750          31.050



 18  6 25 13 28  0.0000000  0 10G07G08G10G16G20G21G26G27G29G31
 133519758.082 7 104041383.22845  25407966.440                    25407960.040
      2627.148        2047.129          43.700          31.700



 130730820.267 6 101868213.91645  24877249.700                    24877248.000
      3175.789        2474.640          41.100          35.250    97623674.741 7
  24877249.140        2371.519          47.100


 126875728.362 6  98864205.86646  24143641.800                    24143641.560
      3520.501        2743.252          41.850          38.850    94744874.081 8
  24143640.840        2629.058          48.300


 106835666.166 8  83248573.80448  20330144.980                    20330137.720
       395.609         308.266          48.600          48.250



 117345321.287 7  91437911.83646  22330062.840                    22330057.280
      2647.137        2062.703          46.750          41.350



 112176342.296 8  87410141.00047  21346435.440                    21346428.140
     -1248.940        -973.200          48.650          47.050



 108915782.838 8  84869442.24648  20725978.600                    20725975.600
     -1589.390       -1238.486          50.550          48.550    81333221.464 8
  20725975.640       -1186.738          52.700


 113414924.782 8  88375273.33347  21582135.180                    21582131.200
      2326.623        1812.953          49.300          45.750    84692970.850 8
  21582132.580        1737.518          51.550


 127740282.633 7  99537860.33445  24308165.660                    24308161.960
     -3159.380       -2461.856          43.850          35.650



 134105083.833 6 104497443.39444  25519360.180                    25519356.600
     -3498.237       -2725.913          41.700          29.850



 18  6 25 13 28 30.0000000  0 10G07G08G10G16G20G21G26G27G29G31
 133441112.910 6 103980101.31744  25393000.840                    25392994.320
      2615.354        2037.946          41.750          29.800



 130635564.257 6 101793988.56045  24859122.940                    24859121.260
      3174.429        2473.587          40.800          35.850    97552542.069 7
  24859122.560        2370.437          47.750


 126770144.549 6  98781932.88046  24123549.560                    24123549.500
      3517.899        2741.226          41.900          37.300    94666029.152 8
  24123548.900        2627.121          48.200


 106824058.612 8  83239528.96548  20327936.140                    20327928.900
       377.783         294.378          48.850          48.300



 117266087.804 7  91376171.49646  22314985.160                    22314979.460
      2634.711        2053.022          46.700          41.500



 112213982.373 8  87439470.93447  21353598.060                    21353590.880
     -1260.837        -982.469          48.800          47.150



 108963703.712 8  84906783.17148  20735097.640                    20735094.560
     -1605.905       -1251.354          50.500          48.600    81369006.508 8
  20735094.780       -1199.123          52.700


 113345240.227 8  88320973.71047  21568874.660                    21568870.640
      2318.561        1806.672          49.500          45.800    84640933.704 8
  21568872.020        1731.405          51.550


 127835083.465 7  99611731.06146  24326205.640                    24326201.960
     -3161.101       -2463.196          43.850          36.350



 134209968.989 6 104579171.86344  25539319.600                    25539315.460
     -3494.479       -2722.977          40.550          28.750



 18  6 25 13 29  0.0000000  0 10G07G08G10G16G20G21G26G27G29G31
 133362825.620 7 103919098.23845  25378103.080                    25378096.680
      2603.631        2028.808          42.950          32.350



 130540353.603 6 101719798.51245  24841004.960                    24841003.340
      3172.940        2472.425          40.550          35.250    97481443.302 8
  24841004.960        2369.395          48.250


 126664641.890 7  98699723.08946  24103473.000                    24103472.820
      3515.256        2739.160          42.600          38.600    94587244.804 8
  24103472.400        2625.165          48.300


 106812989.087 8  83230903.36248  20325829.680                    20325822.440
       360.168         280.650          48.850          48.200



 117187226.543 7  91314721.19846  22299978.260                    22299972.720
      2622.462        2043.479          46.850          41.250



 112251978.118 8  87469078.00247  21360828.480                    21360821.300
     -1272.422        -991.498          48.850          47.150



 109012122.077 8  84944511.74748  20744311.280                    20744308.280
     -1622.266       -1264.104          50.600          48.400    81405163.060 8
  20744308.580       -1211.353          52.650


 113275801.936 8  88266865.97147  21555660.960                    21555656.880
      2310.505        1800.395          49.550          45.700    84589080.465 8
  21555658.340        1725.396          51.600


 127929944.724 7  99685648.84045  24344257.320                    24344253.480
     -3162.956       -2464.645          43.550          35.150



 134314756.511 7 104660824.22445  25559260.280                    25559256.460
     -3491.383       -2720.562          43.050          32.250



 18  6 25 13 29 30.0000000  0 10G07G08G10G16G20G21G26G27G29G31
 133284890.365 7 103858369.50445  25363272.160                    25363266.300
      2592.195        2019.894          42.950          31.550



 130445181.035 6 101645638.06945  24822894.240                    24822892.480
      3172.209        2471.854          40.550          35.550    97410372.935 8
  24822894.440        2368.644          48.000


 126559215.392 7  98617572.67846  24083410.940                    24083410.760
      3512.861        2737.300          42.000          38.200    94508517.341 8
  24083410.520        2623.345          48.300


 106802450.634 8  83222691.58248  20323824.240                    20323817.040
       342.505         266.889          48.800          48.550



 117108732.741 7  91253557.22646  22285041.300                    22285035.920
      2610.366        2034.054          46.850          40.950



 112290320.473 8  87498955.15247  21368124.900                    21368117.640
     -1283.762       -1000.332          48.950          47.650



 109061029.210 8  84982621.17948  20753617.980                    20753614.980
     -1638.391       -1276.667          50.500          48.000    81441684.603 8
  20753615.320       -1223.443          52.650


 113206602.961 8  88212944.71647  21542492.860                    21542488.580
      2302.619        1794.251          49.750          45.600    84537405.930 8
  21542490.180        1719.568          51.600


 128024857.835 7  99759607.03045  24362318.980                    24362314.900
     -3164.486       -2465.834          43.750          33.750



 134419435.564 6 104742392.01145  25579180.140                    25579176.180
     -3487.256       -2717.353          41.100          33.150



 18  6 25 13 30  0.0000000  0 10G07G08G10G16G20G21G26G27G29G31
 133207318.466 7 103797923.88145  25348510.380                    25348504.840
      2579.650        2010.118          42.350          33.250



 130350056.572 6 101571515.18045  24804792.680                    24804790.740
      3170.012        2470.140          41.900          35.600    97339338.472 7
  24804792.700        2367.181          47.950


 126453877.153 6  98535491.02346  24063365.440                    24063365.220
      3509.450        2734.638          41.200          39.750    94429855.778 8
  24063365.360        2620.848          48.300


 106792453.189 8  83214901.36348  20321921.760                    20321914.600
       324.186         252.612          48.700          48.250



 117030618.270 7  91192688.83246  22270176.500                    22270171.120
      2597.306        2023.876          47.200          40.400



 112329017.267 8  87529108.49347  21375488.820                    21375481.340
     -1295.910       -1009.800          49.150          47.250



 109110433.388 8  85021117.92348  20763019.280                    20763016.260
     -1655.065       -1289.661          50.600          48.150    81478577.309 8
  20763016.700       -1235.982          52.600


 113137653.383 8  88159217.78747  21529372.280                    21529367.800
      2294.104        1787.615          49.850          45.800    84485917.632 8
  21529369.480        1713.085          51.600


 128119831.789 7  99833612.61245  24380392.340                    24380387.960
     -3166.728       -2467.583          44.050          34.350



 134524013.589 6 104823881.08445  25599080.840                    25599076.500
     -3484.214       -2714.984          39.600          30.200



 18  6 25 13 30 30.0000000  0 10G07G08G10G16G20G21G26G27G29G31
 133130109.745 7 103737761.30145  25333817.880                    25333812.840
      2568.130        2001.143          42.050          33.600



 130254978.140 6 101497428.15245  24786699.760                    24786698.240
      3168.950        2469.313          41.800          34.850    97268338.405 8
  24786699.680        2366.638          48.050


 126348627.085 6  98453478.09146  24043336.800                    24043336.700
      3507.315        2732.976          41.000          38.650    94351260.058 8
  24043337.060        2619.197          48.750


 106782995.289 8  83207531.56748  20320121.980                    20320114.800
       306.734         239.014          48.600          48.050



 116952882.520 7  91132115.53446  22255383.820                    22255378.280
      2585.181        2014.426          46.800          40.750



 112368063.959 8  87559534.48347  21382919.280                    21382911.720
     -1306.847       -1018.322          49.100          47.250



 109160330.793 8  85059998.99748  20772514.480                    20772511.440
     -1670.936       -1302.028          50.300          48.250    81515838.329 8
  20772511.840       -1247.722          52.650


 113068951.159 8  88105683.59447  21516298.760                    21516294.200
      2286.593        1781.761          49.700          45.650    84434614.031 8
  21516295.960        1707.496          51.750


 128214862.453 7  99907662.40846  24398476.580                    24398471.700
     -3168.041       -2468.606          44.250          36.900



 134628485.481 7 104905287.48345  25618961.520                    25618957.280
     -3479.915       -2711.626          43.900          32.250



 18  6 25 13 31  0.0000000  0 10G07G08G10G16G20G21G26G27G29G31
 133053245.140 7 103677866.82045  25319191.060                    25319185.960
      2556.037        1991.715          42.300          33.800



 130159924.480 6 101423360.40445  24768611.540                    24768609.860
      3167.560        2468.227          41.750          35.600    97197356.851 8
  24768611.400        2365.391          48.550


 126243446.394 6  98371519.22846  24023321.580                    24023321.540
      3504.469        2730.759          41.850          38.800    94272716.167 8
  24023321.960        2616.943          48.800


 106774055.444 8  83200565.44648  20318420.800                    20318413.620
       289.021         225.211          48.750          48.050



 116875506.699 7  91071822.72246  22240659.660                    22240654.040
      2572.757        2004.746          46.900          41.000



 112407437.375 8  87590215.06147  21390411.740                    21390404.300
     -1318.272       -1027.227          48.850          46.850



 109210698.758 8  85099246.73747  20782099.200                    20782096.100
     -1687.310       -1314.787          50.300          47.900    81553450.747 8
  20782096.600       -1259.988          52.650


 113000475.490 8  88052325.93247  21503268.360                    21503263.780
      2278.378        1775.359          49.650          45.550    84383479.617 8
  21503265.540        1701.341          51.800


 128309927.576 7  99981739.07145  24416567.180                    24416562.140
     -3169.850       -2470.017          44.550          34.800



 134732826.594 7 104986591.94745  25638817.300                    25638813.340
     -3476.179       -2708.720          43.750          31.450



 18  6 25 13 31 30.0000000  0 10G07G08G10G16G20G21G26G27G29G31
 132976787.766 7 103618289.67245  25304641.940                    25304636.340
      2544.315        1982.582          42.650          32.700



 130064957.053 6 101349359.85446  24750540.020                    24750538.480
      3166.324        2467.266          41.850          37.200    97126439.650 8
  24750539.560        2364.616          48.400


 126138399.057 7  98289664.25246  24003331.880                    24003331.580
      3501.670        2728.578          42.650          38.700    94194271.853 8
  24003332.100        2614.914          48.700


 106765695.983 8  83194051.58447  20316830.120                    20316822.840
       271.419         211.495          48.800          47.900



 116798554.837 7  91011860.24346  22226016.300                    22226010.400
      2560.420        1995.132          47.100          40.500



 112447196.879 8  87621196.49147  21397977.620                    21397970.320
     -1329.381       -1035.882          48.900          47.100



 109261597.447 8  85138908.03947  20791784.920                    20791781.860
     -1703.125       -1327.112          50.350          47.900    81591459.491 8
  20791782.280       -1271.767          52.650


 112932288.349 8  87999193.11247  21490292.780                    21490288.220
      2270.381        1769.129          49.700          45.750    84332560.678 8
  21490289.980        1695.449          51.750


 128405087.537 7 100055889.61045  24434675.780                    24434670.420
     -3171.133       -2471.017          45.350          33.500



 134837096.398 7 105067840.85044  25658659.320                    25658655.760
     -3472.249       -2705.660          43.300          29.850



 18  6 25 13 32  0.0000000  0 10G07G08G10G16G20G21G26G27G29G31
 132900672.871 7 103558979.42145  25290157.720                    25290152.300
      2530.774        1972.034          43.950          32.550



 129970009.882 7 101275375.07845  24732472.220                    24732470.500
      3164.020        2465.473          42.450          35.000    97055537.624 8
  24732471.640        2362.559          48.400


 126033420.732 7  98207863.06146  23983355.080                    23983354.680
      3497.541        2725.361          42.300          39.200    94115879.069 8
  23983355.240        2611.579          48.450


 106757850.265 8  83187938.03348  20315337.160                    20315329.840
       252.220         196.535          48.800          48.400



 116721962.175 7  90952177.65746  22211441.380                    22211435.060
      2546.311        1984.139          47.350          40.300



 112487273.892 8  87652425.32047  21405604.000                    21405596.760
     -1341.916       -1045.648          48.850          47.050



 109312958.703 8  85178929.76848  20801558.660                    20801555.600
     -1720.441       -1340.604          50.350          48.100    81629813.646 8
  20801556.040       -1284.761          52.600


 112864323.394 8  87946233.42047  21477359.360                    21477354.760
      2261.029        1761.842          49.650          45.800    84281807.642 8
  21477356.700        1688.489          51.700


 128500274.444 7 100130061.17045  24452789.440                    24452783.760
     -3174.000       -2473.248          45.600          35.650



 134941224.865 6 105148979.65144  25678474.380                    25678471.420
     -3469.207       -2703.292          38.950          28.450



 18  6 25 13 32 30.0000000  0 10G07G08G10G16G20G21G26G27G29G31
 132824935.560 7 103499963.35445  25275745.320                    25275740.220
      2518.190        1962.227          44.350          33.500



 129875116.151 7 101201431.95345  24714414.400                    24714412.980
      3162.160        2464.021          42.150          34.850    96984675.448 8
  24714413.660        2361.307          48.200


 125928547.090 7  98126143.40546  23963398.480                    23963397.560
      3493.798        2722.441          42.200          39.050    94037564.411 8
  23963398.280        2609.003          48.450


 106750552.032 8  83182251.08348  20313948.400                    20313941.020
       233.813         182.191          48.850          48.450



 116645764.660 7  90892802.96446  22196941.620                    22196935.180
      2533.096        1973.841          47.150          41.300



 112527699.808 8  87683926.02547  21413296.740                    21413289.560
     -1353.558       -1054.721          48.800          47.550



 109364814.268 8  85219336.67848  20811426.480                    20811423.420
     -1736.842       -1353.384          50.450          48.350    81668536.930 8
  20811423.820       -1297.017          52.600


 112796614.295 8  87893473.08447  21464474.580                    21464470.060
      2252.477        1755.176          49.500          46.150    84231245.659 8
  21464472.060        1682.101          51.700


 128595520.695 7 100204278.95245  24470914.160                    24470908.480
     -3176.118       -2474.899          45.300          34.700



 135045242.401 7 105230031.88045  25698268.400                    25698265.600
     -3465.598       -2700.476          43.500          35.000



 18  6 25 13 33  0.0000000  0 10G07G08G10G16G20G21G26G27G29G31
 132749573.483 7 103441239.73145  25261404.220                    25261399.380
      2505.893        1952.651          43.750          34.650



 129780272.020 7 101127527.50545  24696365.960                    24696364.640
      3160.637        2462.838          42.700          35.100    96913850.366 8
  24696365.500        2360.266          48.600


 125823776.424 7  98044504.02546  23943461.340                    23943460.240
      3490.528        2719.896          42.550          39.500    93959326.690 8
  23943461.000        2606.634          48.550


 106743797.570 8  83176987.87348  20312663.080                    20312655.680
       216.054         168.354          48.750          48.450



 116569959.980 7  90833734.41046  22182516.540                    22182510.040
      2520.289        1963.864          47.050          40.900



 112568468.313 8  87715693.69747  21421054.720                    21421047.500
     -1364.639       -1063.354          48.900          47.050



 109417158.615 8  85260124.47448  20821387.320                    20821384.240
     -1752.912       -1365.905          50.600          48.350    81707625.235 8
  20821384.600       -1309.021          52.650


 112729157.381 8  87840909.28347  21451637.800                    21451633.480
      2244.428        1748.906          49.600          46.200    84180872.032 8
  21451635.320        1675.960          51.750


 128690820.903 7 100278538.81745  24489049.320                    24489043.520
     -3177.361       -2475.869          45.850          34.000



 135149142.125 7 105310992.33746  25718040.140                    25718037.320
     -3461.426       -2697.228          44.700          36.600



 18  6 25 13 33 30.0000000  0 10G07G08G10G16G20G21G26G27G29G31
 132674586.213 7 103382808.10245  25247134.680                    25247129.880
      2493.333        1942.856          45.650          31.800



 129685475.077 7 101053659.80245  24678326.680                    24678325.280
      3159.073        2461.616          42.500          35.100    96843060.490 8
  24678325.900        2359.128          48.600


 125719108.414 7  97962944.62546  23923543.640                    23923542.360
      3487.396        2717.455          43.500          38.850    93881165.612 8
  23923543.340        2604.102          48.800


 106737584.844 8  83172146.79048  20311480.820                    20311473.440
       198.124         154.383          49.000          48.100



 116494547.401 7  90774971.37546  22168166.020                    22168159.540
      2507.326        1953.761          47.450          40.750



 112609574.585 8  87747724.55747  21428876.960                    21428869.660
     -1375.731       -1071.998          49.150          46.600



 109469987.460 8  85301289.79447  20831440.380                    20831437.240
     -1768.824       -1378.305          50.600          47.600    81747075.323 8
  20831437.660       -1320.943          52.650


 112661950.323 8  87788540.16947  21438848.680                    21438844.520
      2236.145        1742.452          49.900          45.950    84130684.965 8
  21438846.080        1669.827          51.750


 128786171.319 7 100352837.75345  24507193.920                    24507188.240
     -3179.111       -2477.232          46.050          33.250



 135252993.765 7 105391928.73746  25737788.480                    25737786.640
     -3457.067       -2693.827          47.750          38.850



 18  6 25 13 34  0.0000000  0 10G07G08G10G16G20G21G26G27G29G31
 132599977.642 7 103324671.58645  25232937.180                    25232932.360
      2480.512        1932.865          45.400          32.200



 129590727.720 7 100979830.73846  24660296.800                    24660295.280
      3157.380        2460.298          42.250          36.400    96772307.672 8
  24660295.920        2357.636          48.300


 125614548.030 7  97881469.07046  23903646.640                    23903644.740
      3483.575        2714.476          43.350          38.650    93803084.894 8
  23903646.060        2601.164          48.850


 106731915.908 8  83167729.42747  20310402.080                    20310394.720
       179.757         140.069          48.850          47.950



 116419531.810 7  90716517.68146  22153890.960                    22153884.460
      2493.644        1943.099          47.000          40.500



 112651019.087 8  87780018.96147  21436763.600                    21436756.280
     -1387.218       -1080.949          48.950          47.000



 109523301.910 8  85342833.49747  20841585.700                    20841582.620
     -1785.468       -1391.274          50.400          47.800    81786888.036 8
  20841583.120       -1333.316          52.650


 112594996.097 8  87736368.05647  21426107.740                    21426103.640
      2227.525        1735.733          49.850          46.400    84080686.695 8
  21426104.940        1663.206          51.750


 128881573.201 7 100427176.81745  24525348.400                    24525342.740
     -3181.157       -2478.824          46.000          34.200



 135356647.364 6 105472697.50245  25757513.380                    25757510.620
     -3453.319       -2690.906          41.000          31.700



 18  6 25 13 34 30.0000000  0 10G07G08G10G16G20G21G26G27G29G31
 132525750.713 7 103266832.43945  25218812.480                    25218807.300
      2467.841        1922.994          46.450          31.950



 129496031.224 6 100906041.31146  24642276.640                    24642274.820
      3155.795        2459.063          41.850          38.500    96701592.807 8
  24642275.740        2356.430          48.650


 125510098.367 7  97800079.79846  23883770.620                    23883768.400
      3479.830        2711.558          42.950          38.050    93725086.853 8
  23883769.760        2598.428          48.950


 106726791.891 8  83163736.68548  20309427.020                    20309419.640
       161.530         125.867          48.450          48.200



 116344916.220 7  90658375.67646  22139692.000                    22139685.620
      2480.217        1932.637          46.900          40.800



 112692800.565 8  87812575.95247  21444714.320                    21444707.140
     -1398.467       -1089.715          48.750          47.100



 109577101.014 8  85384754.85847  20851823.240                    20851820.280
     -1801.553       -1403.809          50.050          47.950    81827062.668 8
  20851820.820       -1345.273          52.700


 112528295.734 8  87684393.75747  21413415.120                    21413411.040
      2218.874        1728.992          49.800          46.800    84030877.981 8
  21413412.120        1657.018          51.700


 128977026.236 7 100501555.71245  24543512.560                    24543506.960
     -3182.718       -2480.045          45.550          34.250



 135460175.858 6 105553368.70244  25777214.160                    25777212.360
     -3449.060       -2687.581          39.550          26.850



 18  6 25 13 35  0.0000000  0 10G07G08G10G16G20G21G26G27G29G31
 132451905.039 7 103209290.36545  25204760.260                    25204754.380
      2454.961        1912.955          45.000          30.700



 129401383.740 6 100832290.06846  24624265.780                    24624264.240
      3154.153        2457.783          41.700          37.600    96630914.551 8
  24624264.940        2355.263          48.300


 125405759.937 7  97718777.20846  23863915.680                    23863913.320
      3475.643        2708.295          43.000          39.650    93647171.890 8
  23863914.600        2595.625          48.900


 106722211.371 8  83160167.44648  20308555.300                    20308547.980
       143.485         111.807          48.400          48.350



 116270700.860 7  90600545.54946  22125569.340                    22125563.100
      2467.008        1922.344          47.100          41.600



 112734915.213 8  87845392.56047  21452728.440                    21452721.440
     -1409.561       -1098.359          48.450          47.200



 109631381.410 8  85427051.26048  20862152.300                    20862149.480
     -1817.546       -1416.269          50.000          48.300    81867596.705 8
  20862150.120       -1357.178          52.650


 112461847.784 8  87632616.16347  21400770.640                    21400766.440
      2210.605        1722.550          50.050          46.700    83981257.774 8
  21400767.420        1650.786          51.650


 129072527.175 7 100575971.97145  24561685.780                    24561680.240
     -3184.324       -2481.292          45.250          34.750



 135563574.672 7 105633938.87145  25796890.520                    25796888.840
     -3444.548       -2684.070          44.300          32.950



 18  6 25 13 35 30.0000000  0 10G07G08G10G16G20G21G26G27G29G31
 132378448.782 7 103152051.75045  25190781.840                    25190776.660
      2442.191        1903.005          44.350          33.250



 129306792.111 7 100758582.35846  24606265.580                    24606264.000
      3152.297        2456.341          42.050          38.450    96560278.002 8
  24606264.680        2353.946          48.750


 125301541.661 7  97637568.24346  23844083.580                    23844081.360
      3472.162        2705.587          43.200          39.650    93569346.674 8
  23844082.320        2592.707          49.200


 106718181.045 8  83157026.92048  20307788.280                    20307781.040
       125.380          97.701          48.600          48.450



 116196894.426 7  90543034.06047  22111524.340                    22111518.220
      2453.630        1911.922          47.100          42.100



 112777367.515 8  87878472.27047  21460806.820                    21460799.900
     -1420.381       -1106.787          48.950          47.850



 109686148.055 8  85469726.53748  20872573.980                    20872571.320
     -1833.199       -1428.466          50.300          48.600    81908493.867 8
  20872571.900       -1369.136          52.800


 112395659.188 8  87581040.64147  21388175.500                    21388171.060
      2202.264        1716.053          50.100          47.100    83931831.250 8
  21388172.140        1644.434          51.950


 129168081.879 7 100650430.10245  24579869.160                    24579863.900
     -3185.740       -2482.396          45.650          35.350



 135666847.580 7 105714410.91345  25816542.860                    25816541.740
     -3440.045       -2680.564          43.450          30.750



 18  6 25 13 36  0.0000000  0 10G07G08G10G16G20G21G26G27G29G31
 132305376.539 7 103095112.36045  25176876.520                    25176871.560
      2429.190        1892.878          43.950          34.000



 129212249.096 6 100684912.53846  24588274.640                    24588272.980
      3150.783        2455.159          41.800          36.650    96489677.756 8
  24588273.780        2352.710          48.000


 125197438.707 7  97556449.15546  23824273.420                    23824271.080
      3468.034        2702.368          43.500          37.600    93491607.549 8
  23824272.060        2589.693          48.600


 106714694.017 8  83154309.75347  20307124.640                    20307117.420
       107.163          83.504          48.350          47.950



 116123491.838 7  90485837.27246  22097556.220                    22097550.240
      2440.056        1901.344          47.350          40.600



 112820148.018 8  87911807.73147  21468947.660                    21468940.660
     -1431.487       -1115.444          48.900          46.650



 109741392.025 8  85512773.77547  20883086.560                    20883084.000
     -1849.431       -1441.114          50.150          47.950    81949747.450 8
  20883084.500       -1381.066          52.600


 112329723.091 8  87529661.88147  21375628.340                    21375623.660
      2193.621        1709.315          50.000          45.750    83882593.266 8
  21375624.940        1638.037          51.750


 129263681.452 7 100724923.23345  24598061.160                    24598055.920
     -3187.366       -2483.664          45.650          32.450



 135769985.040 7 105794792.38546  25836169.400                    25836168.800
     -3435.621       -2677.135          47.850          36.550



 18  6 25 13 36 30.0000000  0 10G07G08G10G16G20G21G26G27G29G31
 132232700.762 7 103038481.90545  25163046.460                    25163041.800
      2415.874        1882.498          44.850          33.500



 129117765.342 6 100611288.87746  24570295.060                    24570293.100
      3148.527        2453.403          41.100          37.100    96419121.765 8
  24570294.140        2351.280          48.350


 125093463.763 7  97475429.81446  23804487.520                    23804485.160
      3463.718        2699.005          43.150          37.250    93413964.028 8
  23804486.140        2586.517          48.950


 106711760.690 8  83152024.05047  20306566.340                    20306559.180
        88.611          69.049          48.400          47.850



 116050505.215 7  90428964.60346  22083667.200                    22083661.560
      2425.959        1890.357          47.150          41.900



 112863265.161 8  87945405.51347  21477152.560                    21477145.560
     -1442.827       -1124.280          48.900          47.050



 109797122.044 8  85556199.74148  20893691.720                    20893689.140
     -1865.715       -1453.804          50.200          48.250    81991364.001 8
  20893689.580       -1393.230          52.700


 112264050.146 8  87478488.17647  21363131.100                    21363126.380
      2184.869        1702.496          49.750          46.200    83833551.808 8
  21363127.860        1631.450          51.950


 129359335.271 7 100799458.63445  24616263.580                    24616258.280
     -3189.332       -2485.194          45.300          33.500



 135873001.715 5                  25855771.040
     -3431.376                          30.300



 18  6 25 13 37  0.0000000  0  9G07G08G10G16G20G21G26G27G29
 132160412.073 7 102982153.08845  25149290.380                    25149285.640
      2403.341        1872.734          45.700          33.150



 129023329.888 6 100537702.86646  24552324.640                    24552322.640
      3147.560        2452.645          41.200          37.750    96348601.855 8
  24552323.540        2350.149          48.100


 124989608.210 7  97394503.49546  23784724.460                    23784722.020
      3460.041        2696.140          43.350          38.000    93336409.667 8
  23784722.880        2583.797          48.900


 106709369.935 8  83150161.11647  20306111.380                    20306104.240
        70.798          55.167          48.400          47.800



 115977925.745 7  90372409.21346  22069855.740                    22069850.180
      2412.672        1880.005          47.500          41.650



 112906705.909 8  87979255.44447  21485419.120                    21485412.040
     -1453.208       -1132.369          48.850          47.200



 109853325.453 8  85599994.57648  20904386.940                    20904384.380
     -1881.173       -1465.851          50.100          48.250    82033334.047 8
  20904384.760       -1404.795          52.700


 112198629.736 8  87427511.25047  21350681.920                    21350677.260
      2176.650        1696.092          49.700          46.000    83784698.925 8
  21350678.860        1625.362          52.000


 129455030.933 7 100874026.60645  24634473.880                    24634468.680
     -3190.437       -2486.057          44.950          33.250



 18  6 25 13 37 30.0000000  0  9G07G08G10G16G20G21G26G27G29
 132088516.485 7 102926130.55645  25135609.260                    25135604.400
      2390.126        1862.434          45.850          33.650



 128928946.991 6 100464157.80346  24534364.120                    24534362.000
      3145.259        2450.854          41.400          36.100    96278121.168 8
  24534362.940        2348.713          48.200


 124885878.479 7  97313675.22646  23764985.380                    23764982.860
      3455.568        2692.652          43.850          38.150    93258949.259 8
  23764983.500        2580.499          48.850


 106707526.135 8  83148724.38147  20305760.520                    20305753.380
        52.455          40.873          48.300          47.950



 115905759.491 7  90316175.79146  22056122.960                    22056117.320
      2398.810        1869.202          47.200          41.550



 112950471.910 8  88013358.81947  21493747.520                    21493740.500
     -1464.004       -1140.782          48.800          47.000



 109910004.639 8  85644160.15948  20915172.700                    20915170.080
     -1897.161       -1478.309          50.050          48.000    82075659.398 8
  20915170.460       -1416.703          52.650


 112133466.251 8  87376734.53047  21338281.600                    21338276.940
      2167.926        1689.294          49.550          45.750    83736037.914 8
  21338278.680        1618.859          51.950


 129550771.568 7 100948629.63145  24652692.660                    24652687.460
     -3191.749       -2487.079          44.550          32.000



 18  6 25 13 38  0.0000000  0  9G07G08G10G16G20G21G26G27G29
 132017024.581 7 102870422.59745  25122004.800                    25121999.800
      2377.458        1852.563          44.400          35.200



 128834626.246 6 100390661.14946  24516415.400                    24516413.540
      3143.929        2449.816          41.600          37.300    96207686.863 7
  24516413.980        2347.723          47.950


 124782286.391 7  97232954.21846  23745272.660                    23745270.020
      3451.741        2689.673          44.350          39.900    93181591.666 8
  23745270.320        2577.495          48.800


 106706238.948 8  83147721.37648  20305515.720                    20305508.500
        34.519          26.897          48.700          48.250



 115834018.157 7  90260273.48346  22042470.980                    22042465.340
      2385.161        1858.568          47.600          41.350



 112994570.806 8  88047721.59647  21502139.240                    21502132.260
     -1474.531       -1148.985          48.850          47.200



 109967167.409 8  85688702.55748  20926050.480                    20926047.800
     -1912.529       -1490.284          50.150          48.050    82118345.862 8
  20926048.220       -1428.188          52.650


 112068569.556 8  87326165.69747  21325931.960                    21325927.420
      2159.741        1682.916          49.500          45.900    83687576.125 8
  21325929.300        1612.763          52.050


 129646565.806 7 101023274.43045  24670921.600                    24670916.640
     -3193.092       -2488.127          44.300          34.950



 18  6 25 13 38 30.0000000  0  9G07G08G10G16G20G21G26G27G29
 131945922.990 7 102815018.81945  25108474.600                    25108469.480
      2363.500        1841.689          44.700          31.950



 128740353.017 7 100317201.54746  24498475.600                    24498473.860
      3141.692        2448.074          42.000          36.600    96137288.106 8
  24498474.220        2346.023          48.300


 124678819.251 7  97152330.55346  23725583.540                    23725580.940
      3446.700        2685.742          43.700          38.200    93104327.334 8
  23725580.940        2573.950          48.700


 106705493.156 8  83147140.22748  20305373.960                    20305366.600
        15.902          12.392          48.800          48.350



 115762688.620 7  90204692.04046  22028897.480                    22028891.720
      2370.713        1847.311          47.700          41.400



 113038985.131 8  88082330.15747  21510591.080                    21510583.980
     -1485.670       -1157.665          49.000          47.000



 110024796.911 8  85733608.63748  20937017.080                    20937014.320
     -1928.715       -1502.896          50.250          48.000    82161380.860 8
  20937014.800       -1440.272          52.650


 112003924.894 8  87275793.25347  21313630.380                    21313625.940
      2150.683        1675.857          49.700          46.300    83639302.548 8
  21313627.920        1605.988          52.100


 129742396.977 7 101097947.98645  24689157.600                    24689152.680
     -3195.091       -2489.683          44.750          33.250



 18  6 25 13 39  0.0000000  0  9G07G08G10G16G20G21G26G27G29
 131875227.986 7 102759931.83945  25095021.740                    25095016.600
      2349.847        1831.052          45.850          34.750



 128646141.338 7 100243789.92146  24480547.740                    24480545.800
      3139.500        2446.367          42.050          37.950    96066935.303 8
  24480546.300        2344.496          48.550


 124575493.449 7  97071817.02446  23705921.220                    23705918.640
      3442.249        2682.274          43.550          39.350    93027168.557 8
  23705918.440        2570.345          48.800


 106705303.050 8  83146992.08848  20305337.960                    20305330.420
        -2.794          -2.177          48.750          48.600



 115691786.922 7  90149443.98247  22015405.320                    22015399.460
      2356.560        1836.280          47.650          42.200



 113083727.084 8  88117194.02247  21519105.300                    21519098.120
     -1496.635       -1166.208          49.100          47.200



 110082905.527 8  85778888.07047  20948074.860                    20948071.960
     -1944.585       -1515.262          50.250          47.700    82204773.632 8
  20948072.520       -1452.179          52.700


 111939546.766 8  87225628.49647  21301379.660                    21301375.280
      2141.716        1668.871          49.900          46.500    83591227.983 8
  21301377.240        1599.354          52.150


 129838277.877 7 101172660.32045  24707403.000                    24707398.220
     -3196.672       -2490.914          44.550          34.950



 18  6 25 13 39 30.0000000  0  9G07G08G10G16G20G21G26G27G29
 131804936.313 7 102705159.16545  25081645.820                    25081640.580
      2336.261        1820.466          45.250          34.600



 128551986.781 7 100170422.78646  24462630.740                    24462628.260
      3137.317        2444.665          43.000          37.000    95996625.134 8
  24462629.240        2342.853          48.650


 124472306.781 7  96991411.91546  23686285.380                    23686282.820
      3436.744        2677.986          44.100          39.050    92950113.653 8
  23686282.500        2566.499          48.600


 106705663.948 8  83147273.30148  20305406.660                    20305399.100
       -21.421         -16.691          48.800          48.350



 115621310.577 7  90094527.36846  22001994.060                    22001988.100
      2342.033        1824.962          47.550          41.000



 113128789.754 8  88152307.78347  21527680.480                    21527673.240
     -1507.545       -1174.710          49.050          47.050



 110141486.873 8  85824535.85447  20959222.500                    20959219.600
     -1960.728       -1527.840          50.250          47.750    82248519.427 8
  20959220.220       -1464.184          52.650


 111875430.880 8  87175668.07947  21289178.940                    21289174.500
      2132.666        1661.818          50.100          46.850    83543349.260 8
  21289176.380        1592.603          52.050


 129934202.869 7 101247406.99345  24725656.860                    24725652.460
     -3198.445       -2492.302          43.900          33.400



 18  6 25 13 40  0.0000000  0  9G07G08G10G16G20G21G26G27G29
 131735048.955 7 102650701.50645  25068346.780                    25068341.300
      2322.949        1810.094          43.400          35.350



 128457888.526 7 100097099.50846  24444724.600                    24444721.880
      3136.269        2443.850          42.550          36.850    95926357.014 8
  24444722.920        2341.791          48.550


 124369260.572 7  96911116.25846  23666676.220                    23666673.800
      3432.692        2674.829          44.200          37.500    92873163.662 8
  23666673.440        2563.401          48.650


 106706574.766 8  83147983.02448  20305579.900                    20305572.380
       -39.239         -30.576          48.450          48.050



 115551260.458 7  90039942.88446  21988663.820                    21988657.960
      2328.153        1814.146          47.550          41.350



 113174170.228 8  88187669.18547  21536316.120                    21536308.880
     -1517.731       -1182.647          49.050          46.850



 110200538.271 8  85870549.91747  20970459.640                    20970456.600
     -1975.980       -1539.725          50.200          47.650    82292616.221 8
  20970457.340       -1475.510          52.650


 111811576.628 8  87125911.53447  21277028.060                    21277023.520
      2124.430        1655.401          50.150          47.300    83495665.909 8
  21277025.200        1586.408          52.000


 130030169.940 7 101322186.47645  24743918.500                    24743914.660
     -3199.312       -2492.971          44.000          34.900



 18  6 25 13 40 30.0000000  0  9G07G08G10G16G20G21G26G27G29
 131665573.119 7 102596564.52445  25055125.660                    25055120.300
      2309.284        1799.444          44.550          33.900



 128363852.328 7 100023824.58946  24426830.200                    24426827.320
      3133.550        2441.729          42.800          37.750    95856135.199 8
  24426828.380        2340.183          48.850


 124266362.879 7  96830936.31146  23647095.240                    23647092.760
      3427.572        2670.838          43.850          39.100    92796324.564 8
  23647092.600        2559.655          48.800


 106708041.384 8  83149125.83648  20305858.860                    20305851.420
       -57.887         -45.107          48.250          48.200



 115481644.084 7  89985696.38246  21975416.340                    21975410.480
      2313.637        1802.834          47.550          41.250



 113219872.047 8  88223280.98647  21545012.880                    21545005.620
     -1528.495       -1191.036          48.700          46.850



 110260063.424 8  85916933.13047  20981786.920                    20981783.880
     -1991.814       -1552.064          50.100          47.750    82337066.797 8
  20981784.600       -1487.354          52.650


 111747989.916 8  87076363.45747  21264928.020                    21264923.460
      2115.356        1648.330          49.950          47.300    83448182.335 8
  21264924.940        1579.632          52.000


 130126183.398 7 101397002.07645  24762189.220                    24762185.640
     -3201.014       -2494.300          44.150          33.800



 18  6 25 13 41  0.0000000  0  9G07G08G10G16G20G21G26G27G29
 131596504.459 7 102542744.83245  25041982.020                    25041977.120
      2295.258        1788.514          44.000          33.200



 128269872.842 7  99950593.86445  24408946.400                    24408943.700
      3130.994        2439.735          42.450          35.850    95785955.770 8
  24408944.540        2338.288          48.800


 124163610.390 7  96750869.49546  23627541.900                    23627539.340
      3422.187        2666.641          43.550          38.600    92719593.897 8
  23627539.360        2555.504          48.750


 106710057.893 8  83150697.13647  20306242.460                    20306235.140
       -76.839         -59.875          48.000          47.950



 115412457.958 7  89931785.14346  21962250.660                    21962244.920
      2298.418        1790.977          47.100          41.600



 113265887.176 8  88259136.92447  21553769.200                    21553761.920
     -1539.569       -1199.664          48.650          46.550



 110320054.899 8  85963679.71347  20993202.940                    20993199.860
     -2007.909       -1564.604          49.950          47.550    82381865.602 8
  20993200.520       -1499.414          52.550


 111684665.472 8  87027019.74447  21252877.780                    21252873.260
      2105.909        1640.969          49.900          47.200    83400894.607 8
  21252874.600        1572.691          51.900


 130222236.728 7 101471848.77745  24780467.380                    24780464.320
     -3202.859       -2495.738          43.300          31.050



 18  6 25 13 41 30.0000000  0  9G07G08G10G16G20G21G26G27G29
 131527850.146 7 102489248.01345  25028917.100                    25028912.360
      2281.196        1777.558          44.200          32.000



 128175955.529 7  99877411.58146  24391074.440                    24391071.740
      3129.427        2438.518          42.900          38.950    95715822.770 8
  24391072.620        2336.863          49.000


 124061010.633 7  96670921.72946  23608017.620                    23608014.980
      3417.208        2662.763          43.200          39.000    92642977.318 8
  23608015.240        2551.793          48.850


 106712629.550 8  83152701.02448  20306731.820                    20306724.540
       -95.165         -74.155          48.300          48.100



 115343709.214 7  89878214.72446  21949168.180                    21949162.280
      2284.212        1779.906          47.650          41.300



 113312218.748 8  88295239.45247  21562585.720                    21562578.400
     -1549.767       -1207.610          48.850          46.250



 110380516.160 8  86010792.36247  21004708.300                    21004705.300
     -2023.263       -1576.569          49.900          47.400    82427015.213 8
  21004705.900       -1510.854          52.600


 111621608.880 8  86977884.75847  21240878.500                    21240873.940
      2097.299        1634.259          50.000          47.050    83353806.913 8
  21240875.220        1566.211          51.900


 130318333.567 7 101546729.34945  24798753.940                    24798751.260
     -3204.146       -2496.738          43.050          32.850



 18  6 25 13 42  0.0000000  0  9G07G08G10G16G20G21G26G27G29
 131459610.904 7 102436074.58045  25015931.320                    25015926.740
      2267.947        1767.233          44.250          34.300



 128082099.182 7  99804276.80846  24373213.980                    24373211.540
      3127.804        2437.251          42.800          36.500    95645735.280 8
  24373212.260        2335.668          49.000


 123958565.225 7  96591094.20646  23588522.660                    23588520.120
      3412.482        2659.082          43.550          38.550    92566475.953 8
  23588520.460        2548.236          48.550


 106715755.623 8  83155136.90948  20307326.700                    20307319.440
      -113.258         -88.254          48.550          48.050



 115275398.953 7  89824985.96846  21936169.160                    21936163.160
      2270.065        1768.882          47.800          41.350



 113358863.935 8  88331586.34147  21571461.900                    21571454.520
     -1559.728       -1215.372          49.000          46.400



 110441444.589 8  86058269.03547  21016302.540                    21016299.600
     -2038.436       -1588.392          50.100          47.550    82472513.690 8
  21016300.120       -1522.234          52.550


 111558819.696 8  86928958.12747  21228930.000                    21228925.420
      2088.770        1627.613          50.100          46.800    83306918.894 8
  21228926.680        1559.792          51.900


 130414471.982 7 101621642.32845  24817048.620                    24817045.980
     -3205.014       -2497.411          43.100          32.800



 18  6 25 13 42 30.0000000  0  9G07G08G10G16G20G21G26G27G29
 131391789.789 7 102383226.97645  25003024.920                    25003020.720
      2253.656        1756.093          44.050          33.300



 127988306.342 7  99731191.52946  24355365.680                    24355363.360
      3125.430        2435.400          42.200          38.200    95575695.258 8
  24355364.060        2333.887          49.250


 123856277.823 7  96511389.82946  23569057.880                    23569055.240
      3406.952        2654.771          44.200          37.900    92490092.589 8
  23569055.620        2544.162          48.550


 106719437.225 8  83158005.69647  20308027.340                    20308020.080
      -131.884        -102.767          48.650          47.900



 115207530.272 7  89772101.30446  21923254.160                    21923248.260
      2254.855        1757.031          47.800          41.050



 113405821.971 8  88368177.02847  21580397.720                    21580390.340
     -1570.460       -1223.735          49.100          46.400



 110502839.678 8  86106109.34847  21027985.600                    21027982.760
     -2054.209       -1600.683          49.900          47.500    82518360.653 8
  21027983.240       -1534.049          52.550


 111496299.625 8  86880241.21547  21217032.640                    21217028.100
      2079.551        1620.430          50.050          46.300    83260231.859 8
  21217029.460        1552.869          51.950


 130510652.229 7 101696587.91445  24835351.280                    24835348.280
     -3206.444       -2498.530          42.300          30.350



 18  6 25 13 43  0.0000000  0  9G07G08G10G16G20G21G26G27G29
 131324382.987 7 102330702.19345  24990197.680                    24990193.200
      2240.319        1745.701          45.050          34.950



 127894571.328 6  99658151.30646  24337528.380                    24337526.080
      3124.069        2434.341          41.850          38.050    95505698.388 8
  24337526.880        2332.873          49.000


 123754145.593 7  96431806.31946  23549622.820                    23549619.940
      3402.248        2651.103          44.200          37.950    92413825.068 8
  23549620.420        2540.671          48.750


 106723668.921 8  83161303.10548  20308832.600                    20308825.300
      -149.704        -116.654          48.300          48.250



 115140100.045 7  89719558.29146  21910422.600                    21910416.700
      2240.885        1746.144          47.750          41.750



 113453085.426 8  88405005.68047  21589391.720                    21589384.320
     -1579.987       -1231.159          48.950          46.350



 110564694.212 8  86154307.65347  21039756.100                    21039753.280
     -2069.031       -1612.234          49.900          47.600    82564550.693 8
  21039753.740       -1545.034          52.450


 111434043.692 8  86831730.10547  21205185.620                    21205181.160
      2071.227        1613.943          49.950          46.400    83213742.045 8
  21205182.640        1546.783          52.000


 130606867.819 7 101771561.02545  24853660.780                    24853657.580
     -3207.165       -2499.094          42.800          31.600



 18  6 25 13 43 30.0000000  0  9G07G08G10G16G20G21G26G27G29
 131257399.254 7 102278507.13645  24977450.960                    24977446.560
      2225.618        1734.247          43.800          31.900



 127800901.474 6  99585161.86145  24319703.520                    24319701.480
      3121.465        2432.317          41.900          35.700    95435750.169 8
  24319702.120        2330.891          49.200


 123652178.115 7  96352351.18446  23530218.980                    23530216.060
      3396.308        2646.474          44.100          38.100    92337680.586 8
  23530216.740        2536.105          49.100


 106728457.935 8  83165034.80247  20309743.880                    20309736.640
      -168.872        -131.588          48.300          47.850



 115073117.088 8  89667363.81146  21897676.200                    21897670.140
      2225.453        1734.121          48.100          41.400



 113500659.283 8  88442076.21847  21598444.840                    21598437.340
     -1590.893       -1239.656          49.050          46.050



 110627013.639 8  86202868.22347  21051615.100                    21051612.400
     -2084.940       -1624.629          49.800          47.350    82611087.892 8
  21051612.800       -1556.921          52.550


 111372059.564 8  86783430.79847  21193390.380                    21193385.980
      2061.700        1606.521          49.800          46.400    83167455.212 8
  21193387.560        1539.617          52.150


 130703124.934 7 101846566.50845  24871978.280                    24871974.660
     -3209.193       -2500.672          42.650          31.700



 18  6 25 13 44  0.0000000  0  9G07G08G10G16G20G21G26G27G29
 131190838.079 7 102226641.30245  24964785.060                    24964779.800
      2211.673        1723.384          44.800          33.650



 127707295.146 7  99512221.88146  24301890.960                    24301888.740
      3119.181        2430.528          42.300          37.600    95365849.389 8
  24301889.600        2329.097          49.000


 123550375.581 7  96273024.61046  23510846.600                    23510843.860
      3390.761        2642.155          44.600          37.750    92261659.315 8
  23510844.480        2531.897          48.850


 106733801.828 8  83169198.87047  20310760.680                    20310753.560
      -187.514        -146.114          48.300          47.800



 115006581.565 7  89615517.96146  21885014.920                    21885008.820
      2210.237        1722.264          47.800          41.350



 113548539.312 8  88479385.32547  21607556.200                    21607548.640
     -1601.182       -1247.674          49.000          46.150



 110689793.889 8  86251787.87847  21063561.740                    21063559.080
     -2100.345       -1636.633          49.950          47.550    82657969.238 8
  21063559.620       -1568.577          52.450


 111310345.462 8  86735341.90347  21181646.560                    21181642.180
      2052.576        1599.410          50.000          46.550    83121370.038 8
  21181643.780        1532.682          52.050


 130799420.456 7 101921601.92845  24890303.120                    24890299.280
     -3210.413       -2501.620          43.150          32.650



 18  6 25 13 44 30.0000000  0  9G07G08G10G16G20G21G26G27G29
 131124702.866 7 102175107.36445  24952200.340                    24952194.880
      2197.335        1712.209          45.600          34.300



 127613753.925 7  99439332.66346  24284090.720                    24284088.580
      3117.106        2428.914          42.650          36.650    95295997.233 8
  24284089.360        2327.426          49.000


 123448742.384 7  96193829.97846  23491506.380                    23491503.800
      3384.856        2637.552          44.500          38.900    92185764.471 8
  23491504.240        2527.690          48.850


 106739702.675 8  83173796.92848  20311883.540                    20311876.460
      -205.925        -160.461          48.200          48.050



 114940497.006 7  89564023.52646  21872439.340                    21872433.380
      2195.178        1710.529          47.850          41.550



 113596725.386 8  88516932.90747  21616725.740                    21616718.200
     -1611.396       -1255.635          48.900          46.300



 110753035.038 8  86301066.66747  21075596.100                    21075593.520
     -2115.741       -1648.630          49.800          47.400    82705194.734 8
  21075594.100       -1579.952          52.450


 111248903.617 8  86687465.15647  21169954.580                    21169950.220
      2043.507        1592.344          49.900          46.550    83075488.155 8
  21169951.720        1525.964          52.100


 130895754.847 7 101996667.57745  24908635.360                    24908630.960
     -3211.771       -2502.685          43.600          32.000



 18  6 25 13 45  0.0000000  0  9G07G08G10G16G20G21G26G27G29
 131058992.860 7 102123904.80245  24939696.720                    24939690.840
      2183.042        1701.071          45.950          33.650



 127520276.138 7  99366492.87046  24266302.680                    24266300.260
      3114.611        2426.974          42.750          37.350    95226192.437 8
  24266301.240        2325.845          49.000


 123347278.161 7  96114767.00146  23472198.600                    23472195.900
      3379.080        2633.052          45.450          38.550    92109995.793 8
  23472196.140        2523.223          48.900


 106746157.354 8  83178826.53948  20313111.760                    20313104.820
      -224.648        -175.050          48.300          48.200



 114874862.674 7  89512879.89946  21859949.480                    21859943.540
      2179.875        1698.605          47.900          41.850



 113645212.733 8  88554715.24247  21625952.600                    21625945.100
     -1621.543       -1263.540          49.050          46.400



 110816732.456 8  86350700.99847  21087717.320                    21087714.740
     -2131.056       -1660.563          49.800          47.600    82752760.966 8
  21087715.460       -1591.440          52.550


 111187731.748 8  86639798.76547  21158313.940                    21158309.620
      2034.283        1585.156          49.850          47.000    83029807.876 8
  21158311.100        1519.121          52.150


 130992124.817 7 102071761.00045  24926974.160                    24926969.480
     -3213.065       -2503.688          42.900          30.850



 18  6 25 13 45 30.0000000  0  9G07G08G10G16G20G21G26G27G29
 130993712.786 7 102073037.26145  24927274.840                    24927268.880
      2168.746        1689.934          45.350          34.850



 127426865.089 7  99293705.06946  24248527.120                    24248524.620
      3112.729        2425.506          43.000          38.350    95156437.474 8
  24248525.780        2324.241          48.900


 123245988.719 7  96035840.24046  23452924.120                    23452921.040
      3373.300        2628.551          45.900          37.950    92034357.647 8
  23452921.380        2518.894          48.900


 106753169.206 8  83184290.32248  20314446.120                    20314439.060
      -243.121        -189.445          48.300          48.100



 114809683.763 8  89462091.16646  21847546.320                    21847540.320
      2165.004        1687.017          48.250          41.250



 113694002.635 8  88592733.34547  21635237.080                    21635229.540
     -1631.409       -1271.229          49.000          46.300



 110880887.634 8  86400692.02947  21099925.700                    21099923.080
     -2146.160       -1672.333          49.950          47.550    82800669.022 8
  21099923.980       -1602.680          52.450


 111126833.644 8  86592345.71947  21146725.480                    21146721.140
      2025.396        1578.230          50.100          46.700    82984332.042 8
  21146722.740        1512.425          52.100


 131088531.995 7 102146883.40745  24945320.120                    24945315.000
     -3214.131       -2504.519          43.150          30.500



 18  6 25 13 46  0.0000000  0  9G07G08G10G16G20G21G26G27G29
 130928863.433 7 102022505.32145  24914934.820                    24914928.500
      2154.758        1679.029          45.750          32.700



 127333519.999 7  99220968.67446  24230764.100                    24230761.660
      3110.389        2423.682          43.250          37.750    95086731.765 8
  24230762.760        2322.754          48.850


 123144875.636 7  95957050.88646  23433683.040                    23433679.920
      3367.548        2624.064          45.250          37.700    91958851.203 8
  23433680.220        2514.746          49.100


 106760737.198 8  83190187.45047  20315886.340                    20315879.240
      -261.409        -203.696          48.550          47.900



 114744961.385 8  89411658.15847  21835230.140                    21835223.880
      2149.949        1675.286          48.100          42.050



 113743091.978 8  88630984.77347  21644578.380                    21644570.940
     -1641.013       -1278.712          48.750          46.150



 110945497.890 8  86451037.66347  21112220.700                    21112218.040
     -2161.152       -1684.016          50.050          47.150    82848916.923 8
  21112218.940       -1613.884          52.550


 111066208.937 8  86545105.69747  21135189.120                    21135184.700
      2016.400        1571.222          50.050          47.050    82939060.358 8
  21135186.400        1505.734          52.100


 131184974.539 7 102222033.39944  24963672.760                    24963667.220
     -3214.961       -2505.167          42.850          29.950



 18  6 25 13 46 30.0000000  0  9G07G08G10G16G20G21G26G27G29
 130864451.221 7 101972314.04445  24902677.740                    24902671.400
      2140.155        1667.656          45.900          33.400



 127240246.068 7  99148287.73946  24213014.620                    24213012.420
      3108.575        2422.271          42.850          38.550    95017079.197 8
  24213013.180        2321.218          48.900


 123043946.373 7  95878404.76946  23414476.880                    23414473.900
      3361.493        2619.349          45.450          38.350    91883482.011 8
  23414474.100        2510.312          49.200


 106768866.357 8  83196521.86047  20317433.320                    20317426.120
      -279.889        -218.095          48.450          47.800



 114680702.385 8  89361586.24446  21823002.120                    21822995.720
      2134.605        1663.330          48.450          41.900



 113792483.776 8  88669471.88247  21653977.120                    21653969.840
     -1650.916       -1286.428          48.700          46.400



 111010566.349 8  86501740.34447  21124602.920                    21124600.180
     -2176.234       -1695.768          50.100          47.250    82897506.973 8
  21124601.100       -1625.067          52.600


 111005863.016 8  86498082.91747  21123705.700                    21123701.300
      2007.349        1564.168          50.100          47.500    82893996.859 8
  21123702.920        1499.003          52.100


 131281456.546 7 102297214.10244  24982032.780                    24982027.120
     -3216.295       -2506.203          43.750          29.600



 18  6 25 13 47  0.0000000  0  9G07G08G10G16G20G21G26G27G29
 130800473.489 7 101922461.30145  24890503.140                    24890496.800
      2125.240        1656.032          45.650          34.250



 127147039.403 7  99075659.21146  24195277.900                    24195275.700
      3105.666        2420.000          42.850          39.350    94947476.861 8
  24195276.480        2319.325          48.900


 122943198.817 7  95799900.26446  23395305.180                    23395302.480
      3355.362        2614.572          45.600          37.950    91808248.537 8
  23395302.580        2505.580          49.050


 106777551.850 8  83203289.76647  20319086.120                    20319078.880
      -298.744        -232.788          48.000          47.900



 114616904.192 8  89311873.37646  21810861.960                    21810855.180
      2118.999        1651.168          48.450          41.350



 113842171.668 8  88708189.71647  21663432.380                    21663425.120
     -1661.135       -1294.391          48.850          46.500



 111076086.557 8  86552795.02947  21137071.140                    21137068.280
     -2191.545       -1707.698          49.950          47.600    82946434.377 8
  21137069.240       -1636.476          52.550


 110945791.847 8  86451274.22647  21112274.600                    21112270.220
      1997.844        1556.762          50.150          47.600    82849138.532 8
  21112271.540        1491.895          51.950


 131377972.433 7 102372421.18345  25000399.140                    25000393.280
     -3217.533       -2507.172          42.950          30.950



 18  6 25 13 47 30.0000000  0  9G07G08G10G16G20G21G26G27G29
 130736932.974 7 101872949.23645  24878411.840                    24878405.480
      2110.211        1644.321          45.400          35.900



 127053901.625 7  99003084.38446  24177554.160                    24177552.280
      3103.322        2418.173          43.150          38.700    94877925.994 8
  24177552.680        2317.313          48.800


 122842636.824 7  95721540.31446  23376168.940                    23376166.220
      3348.536        2609.251          45.850          38.950    91733153.599 8
  23376166.240        2500.655          49.150


 106786794.746 8  83210492.02148  20320845.020                    20320837.760
      -317.654        -247.522          48.150          48.000



 114553570.195 8  89262522.23846  21798809.920                    21798803.040
      2103.153        1638.821          48.250          41.550



 113892154.383 8  88747137.28847  21672943.780                    21672936.540
     -1671.244       -1302.268          48.850          46.800



 111142057.952 8  86604201.29047  21149625.220                    21149622.300
     -2206.860       -1719.632          49.950          47.350    82995698.713 8
  21149623.140       -1647.942          52.500


 110885997.168 8  86404680.99647  21100896.120                    21100891.700
      1988.235        1549.275          50.150          47.750    82804486.679 8
  21100892.740        1484.759          51.950


 131474522.492 7 102447654.98845  25018771.880                    25018766.320
     -3219.172       -2508.441          43.650          31.450



 18  6 25 13 48  0.0000000  0  9G07G08G10G16G20G21G26G27G29
 130673834.998 7 101823782.02345  24866404.540                    24866398.600
      2095.846        1633.128          46.350          34.250



 126960836.533 7  98930566.18446  24159844.420                    24159842.600
      3100.296        2415.816          43.200          38.700    94808429.347 8
  24159842.900        2315.621          49.200


 122742266.411 7  95643329.64846  23357069.040                    23357066.520
      3342.392        2604.464          45.750          38.850    91658201.734 8
  23357066.420        2496.011          49.100


 106796598.529 8  83218131.33048  20322710.620                    20322703.340
      -336.332        -262.077          48.200          48.200



 114490705.459 8  89213536.74446  21786847.300                    21786840.340
      2087.456        1626.589          48.400          41.950



 113942433.992 8  88786316.20047  21682511.680                    21682504.460
     -1680.988       -1309.861          48.850          46.200



 111208482.236 8  86655960.45647  21162265.460                    21162262.460
     -2221.757       -1731.239          50.050          47.300    83045301.237 8
  21162263.260       -1659.047          52.550


 110826483.016 8  86358306.34947  21089570.900                    21089566.420
      1978.945        1542.036          50.100          47.600    82760044.303 8
  21089567.440        1477.896          52.000


 131571109.409 7 102522917.47745  25037151.600                    25037146.120
     -3220.403       -2509.401          43.300          32.000



 18  6 25 13 48 30.0000000  0  9G07G08G10G16G20G21G26G27G29
 130611176.625 7 101774957.33346  24854481.160                    24854475.000
      2081.433        1621.896          46.300          36.550



 126867840.139 7  98858101.49046  24142147.880                    24142145.800
      3098.528        2414.439          43.400          38.900    94738984.060 8
  24142146.260        2314.018          49.200


 122642085.755 7  95565266.85646  23338005.160                    23338002.860
      3336.232        2599.662          45.400          38.850    91583391.578 8
  23338002.660        2491.388          48.850


 106806958.564 8  83226204.07648  20324682.100                    20324674.840
      -354.508        -276.240          48.250          48.150



 114428307.717 8  89164915.14146  21774973.280                    21774966.540
      2072.247        1614.738          48.250          41.950



 113993003.803 8  88825721.23747  21692134.820                    21692127.540
     -1690.310       -1317.124          48.800          46.150



 111275353.174 8  86708067.65047  21174990.640                    21174987.640
     -2236.234       -1742.521          50.100          47.100    83095237.302 8
  21174988.460       -1669.979          52.450


 110767245.600 8  86312147.33447  21078298.300                    21078293.780
      1970.136        1535.171          50.100          47.250    82715808.591 8
  21078294.960        1471.135          52.050


 131667727.587 6 102598204.24645  25055537.300                    25055531.980
     -3220.852       -2509.759          41.650          31.600



 18  6 25 13 49  0.0000000  0  9G07G08G10G16G20G21G26G27G29
 130548963.064 7 101726479.26845  24842642.340                    24842636.280
      2066.353        1610.146          45.900          35.550



 126774916.532 7  98785693.56446  24124465.040                    24124462.840
      3096.268        2412.680          43.250          38.000    94669593.153 8
  24124463.660        2312.117          49.300


 122542100.768 7  95487356.54646  23318978.520                    23318976.420
      3329.489        2594.409          46.000          39.050    91508727.527 8
  23318975.860        2486.329          48.650


 106817878.138 8  83234712.83848  20326760.040                    20326752.760
      -373.242        -290.838          48.300          48.100



 114366382.166 7  89116661.47746  21763189.180                    21763182.500
      2056.302        1602.313          47.950          41.950



 114043865.591 8  88865353.79447  21701813.460                    21701806.140
     -1700.178       -1324.813          48.950          46.150



 111342672.286 8  86760524.07847  21187801.140                    21187798.020
     -2251.449       -1754.377          50.050          47.150    83145508.036 8
  21187798.880       -1681.269          52.400


 110708288.853 8  86266207.02547  21067079.140                    21067074.580
      1960.646        1527.776          50.000          47.250    82671782.466 8
  21067075.960        1464.026          52.050


 131764379.266 7 102673517.13945  25073929.320                    25073924.240
     -3222.297       -2510.888          42.500          32.850



 18  6 25 13 49 30.0000000  0  9G07G08G10G16G20G21G26G27G29
 130487195.677 7 101678348.86745  24830888.480                    24830882.420
      2050.895        1598.101          46.600          35.450



 126682065.623 7  98713342.25946  24106796.080                    24106793.920
      3093.589        2410.592          42.900          38.750    94600256.496 8
  24106794.640        2310.030          49.700


 122442314.008 7  95409600.67746  23299989.600                    23299987.420
      3322.330        2588.830          46.000          38.200    91434211.493 8
  23299987.060        2481.067          49.150


 106829357.256 8  83243657.60148  20328944.440                    20328937.180
      -392.467        -305.818          48.350          48.250



 114304930.690 7  89068777.24947  21751495.100                    21751488.680
      2039.981        1589.598          47.950          42.300



 114095017.463 8  88905212.39747  21711547.380                    21711539.940
     -1710.290       -1332.692          49.050          46.300



 111410437.703 8  86813328.28147  21200696.480                    21200693.440
     -2266.620       -1766.197          50.000          47.350    83196112.055 8
  21200694.240       -1692.653          52.550


 110649613.255 8  86220485.79947  21055913.440                    21055908.980
      1950.728        1520.049          50.250          47.300    82627966.291 8
  21055910.480        1456.702          52.250


 131861063.731 7 102748855.62445  25092327.420                    25092323.020
     -3223.777       -2512.035          45.100          34.200



 18  6 25 13 50  0.0000000  0  9G07G08G10G16G20G21G26G27G29
 130425874.983 7 101630566.53145  24819219.440                    24819213.340
      2036.144        1586.606          46.300          34.200



 126589287.052 7  98641047.31046  24089140.780                    24089138.680
      3090.945        2408.532          42.600          37.950    94530973.852 8
  24089139.440        2308.206          49.750


 122342726.743 7  95332000.24946  23281038.520                    23281036.300
      3315.764        2583.714          45.000          38.850    91359844.454 8
  23281036.340        2476.089          49.300


 106841394.401 8  83253037.18448  20331235.080                    20331227.780
      -411.066        -320.312          48.200          48.050



 114243954.136 7  89021263.08047  21739891.500                    21739885.200
      2024.125        1577.243          47.700          42.550



 114146455.568 8  88945294.04047  21721335.840                    21721328.320
     -1719.781       -1340.089          48.850          46.350



 111478646.324 8  86866477.82147  21213676.140                    21213673.040
     -2281.477       -1777.773          50.100          47.200    83247047.021 8
  21213673.940       -1703.671          52.600


 110591218.158 8  86174983.13847  21044801.180                    21044796.760
      1941.396        1512.778          50.100          47.550    82584359.580 8
  21044798.380        1449.702          52.350


 131957778.794 6 102824217.99045  25110731.480                    25110727.600
     -3224.704       -2512.761          40.900          33.850



 18  6 25 13 50 30.0000000  0  9G07G08G10G16G20G21G26G27G29
 130365007.140 7 101583137.08445  24807636.420                    24807630.680
      2021.008        1574.811          45.700          35.050



 126496585.501 7  98568812.37346  24071500.120                    24071498.260
      3088.293        2406.465          42.450          38.300    94461748.698 8
  24071498.760        2306.405          49.550


 122243346.194 7  95254560.92846  23262126.820                    23262124.780
      3309.037        2578.473          45.750          38.500    91285631.783 8
  23262124.760        2470.984          48.800


 106853993.956 8  83262855.01348  20333632.760                    20333625.420
      -429.542        -334.708          48.550          48.100



 114183459.187 7  88974124.18147  21728379.480                    21728373.400
      2008.385        1564.978          47.750          42.200



 114198183.168 8  88985601.25247  21731179.220                    21731171.900
     -1729.270       -1347.482          48.850          46.100



 111547300.910 8  86919974.88147  21226740.680                    21226737.560
     -2296.144       -1789.203          50.150          46.900    83298315.027 8
  21226738.520       -1714.670          52.450


 110533108.751 8  86129703.09547  21033743.400                    21033738.920
      1931.995        1505.451          50.200          47.200    82540966.206 8
  21033740.580        1442.721          52.300


 132054528.343 6 102899607.24045  25129141.940                    25129138.520
     -3226.001       -2513.763          40.650          30.600



 18  6 25 13 51  0.0000000  0  9G07G08G10G16G20G21G26G27G29
 130304587.369 7 101536056.74545  24796138.660                    24796133.180
      2005.848        1563.000          45.650          34.600



 126403955.086 7  98496632.84646  24053873.220                    24053871.200
      3085.736        2404.474          42.850          38.500    94392576.675 8
  24053871.640        2304.349          49.400


 122144168.344 7  95177279.54246  23243253.760                    23243251.680
      3301.773        2572.813          45.800          39.900    91211570.458 8
  23243251.640        2465.592          48.600


 106867149.041 8  83273105.71648  20336136.160                    20336128.740
      -448.393        -349.397          48.650          48.150



 114123440.993 7  88927356.77847  21716958.200                    21716952.360
      1992.070        1552.262          47.750          42.100



 114250191.329 8  89026127.08247  21741076.020                    21741068.820
     -1738.877       -1354.970          48.800          46.350



 111616392.937 8  86973812.79147  21239888.420                    21239885.360
     -2311.024       -1800.800          50.100          47.200    83349909.689 8
  21239886.200       -1725.734          52.400


 110475278.998 8  86084640.95247  21022738.740                    21022734.300
      1922.374        1497.954          50.150          47.300    82497781.660 8
  21022735.960        1435.521          52.350


 132151304.732 7 102975017.29545  25147557.780                    25147554.560
     -3227.148       -2514.667          44.000          32.900



 18  6 25 13 51 30.0000000  0  9G07G08G10G16G20G21G26G27G29
 130244624.065 7 101489332.12746  24784727.540                    24784722.540
      1990.685        1551.184          45.750          36.000



 126311402.857 7  98424514.27646  24036261.100                    24036258.960
      3083.485        2402.719          42.850          39.000    94323463.055 8
  24036259.440        2302.638          49.800


 122045202.667 7  95100163.49446  23224421.120                    23224419.000
      3294.979        2567.520          45.600          39.650    91137667.587 8
  23224418.840        2460.565          48.700


 106880866.615 8  83283794.73147  20338746.560                    20338739.080
      -466.854        -363.782          48.750          47.800



 114063908.086 7  88880967.52447  21705629.380                    21705623.620
      1976.238        1539.928          47.850          42.100



 114302485.320 8  89066875.63847  21751027.140                    21751020.160
     -1748.149       -1362.195          48.700          46.400



 111685927.493 8  87027995.53747  21253120.420                    21253117.400
     -2325.418       -1812.015          50.150          46.850    83401834.815 8
  21253118.180       -1736.503          52.450


 110417736.462 8  86039802.62947  21011788.760                    21011784.300
      1913.001        1490.651          50.300          47.200    82454811.602 8
  21011785.900        1428.532          52.400


 132248113.854 7 103050452.94045  25165979.960                    25165976.740
     -3227.709       -2515.094          44.700          33.150



 18  6 25 13 52  0.0000000  0  9G07G08G10G16G20G21G26G27G29
 130185114.968 7 101442961.43145  24773402.940                    24773398.220
      1975.502        1539.354          44.850          34.650



 126218926.015 7  98352454.43346  24018663.260                    24018661.140
      3080.801        2400.624          43.400          38.700    94254405.704 8
  24018661.520        2300.633          49.750


 121946448.104 7  95023211.93346  23205628.600                    23205626.480
      3287.918        2562.016          45.350          39.950    91063922.375 8
  23205626.140        2455.137          48.800


 106895142.565 8  83294918.84248  20341463.180                    20341455.680
      -485.610        -378.397          48.400          48.050



 114004858.722 8  88834955.04947  21694392.680                    21694386.880
      1959.712        1527.049          48.050          42.200



 114355059.590 8  89107842.60647  21761031.720                    21761024.760
     -1757.657       -1369.603          48.950          46.100



 111755899.021 8  87082518.78347  21266435.560                    21266432.580
     -2340.093       -1823.449          50.100          47.300    83454086.257 8
  21266433.320       -1747.544          52.400


 110360478.006 8  85995185.65847  21000892.880                    21000888.260
      1903.408        1483.175          50.450          47.050    82412053.681 8
  21000889.860        1421.298          52.350


 132344951.110 7 103125910.47045  25184407.680                    25184404.260
     -3228.893       -2516.022          44.400          30.650



 18  6 25 13 52 30.0000000  0  9G07G08G10G16G20G21G26G27G29
 130126063.572 7 101396947.35445  24762165.340                    24762161.060
      1960.787        1527.884          43.950          35.200



 126126526.650 7  98280454.95746  24001080.320                    24001078.160
      3078.697        2398.985          43.600          39.750    94185406.229 8
  24001078.500        2299.040          49.650


 121847908.956 7  94946428.23846  23186877.160                    23186875.120
      3280.890        2556.539          45.300          40.900    90990337.991 8
  23186874.380        2450.224          48.400


 106909978.434 8  83306479.24148  20344286.280                    20344278.800
      -503.823        -392.590          48.350          48.150



 113946296.701 8  88789322.31147  21683248.800                    21683242.780
      1944.000        1514.806          48.050          42.250



 114407913.838 8  89149027.71647  21771089.640                    21771082.640
     -1766.406       -1376.421          48.750          46.800



 111826307.336 8  87137382.37347  21279833.820                    21279830.940
     -2354.182       -1834.428          50.100          47.500    83506663.850 8
  21279831.440       -1757.935          52.250


 110303505.991 8  85950791.88047  20990051.440                    20990046.720
      1894.292        1476.071          50.250          47.700    82369509.648 8
  20990048.380        1414.553          52.250


 132441817.234 7 103201390.51145  25202840.820                    25202837.000
     -3229.127       -2516.209          42.850          34.750



 18  6 25 13 53  0.0000000  0  9G07G08G10G16G20G21G26G27G29
 130067470.056 7 101351290.09945  24751014.760                    24751011.200
      1945.487        1515.967          43.200          33.950



 126034203.564 7  98208514.94446  23983512.040                    23983509.640
      3075.915        2396.817          43.900          38.950    94116463.711 8
  23983510.060        2297.074          49.850


 121749586.386 7  94869813.30246  23168166.920                    23168164.880
      3273.748        2550.974          45.300          40.400    90916915.367 8
  23168163.960        2444.606          48.650


 106925372.740 8  83318474.80448  20347215.680                    20347208.240
      -522.520        -407.158          48.450          48.000



 113888222.426 8  88744069.65746  21672197.740                    21672191.500
      1927.638        1502.056          48.050          41.900



 114461044.788 8  89190428.44747  21781200.180                    21781193.200
     -1775.621       -1383.602          49.000          46.150



 111897149.148 8  87192583.76647  21293314.560                    21293311.680
     -2368.768       -1845.793          49.950          47.150    83559565.181 8
  21293312.180       -1768.824          52.300


 110246819.647 8  85906620.71347  20979264.420                    20979259.640
      1884.684        1468.584          50.350          47.550    82327178.953 8
  20979261.360        1407.372          52.300


 132538710.077 7 103276891.39745  25221279.140                    25221275.340
     -3230.373       -2517.183          42.250          30.600



 18  6 25 13 53 30.0000000  0 10G07G08G10G15G16G20G21G26G27G29
 130009338.328 6 101305992.65945  24739951.800                    24739949.260
      1930.063        1503.947          41.850          35.500



 125941960.148 7  98136636.99246  23965958.640                    23965956.140
      3073.495        2394.933          43.700          38.200    94047580.689 8
  23965956.800        2295.102          49.800


 121651485.365 7  94793370.98546  23149498.940                    23149496.740
      3266.263        2545.141          45.550          40.650    90843658.152 8
  23149495.820        2439.143          48.450


 134452347.092 6 104768022.60955  25585431.000                    25585425.920
      2065.774        1609.694          40.650          30.250



 106941327.395 8  83330906.98647  20350251.760                    20350244.340
      -541.241        -421.746          48.550          47.950



 113830640.031 8  88699200.26647  21661240.180                    21661233.980
      1911.262        1489.296          48.200          42.100



 114514452.914 8  89232045.16547  21791363.500                    21791356.420
     -1784.872       -1390.810          48.850          46.550



 111968424.904 8  87248123.28247  21306877.800                    21306875.000
     -2383.107       -1856.968          50.000          46.750    83612790.557 8
  21306875.500       -1779.570          52.200


 110190421.871 8  85862674.40247  20968532.280                    20968527.620
      1875.020        1461.056          50.300          47.750    82285063.730 8
  20968529.240        1400.286          52.200


 132635631.455 7 103352414.50845  25239722.920                    25239719.260
     -3231.085       -2517.726          44.000          34.350



 18  6 25 13 54  0.0000000  0 10G07G08G10G15G16G20G21G26G27G29
 129951671.655 7 101261057.59645  24728977.940                    24728975.360
      1914.803        1492.055          43.000          35.400



 125849798.122 7  98064822.48746  23948420.520                    23948418.280
      3071.051        2393.028          43.350          39.200    93978758.454 8
  23948418.940        2293.210          49.650


 121553610.217 7  94717104.68146  23130873.840                    23130871.720
      3258.966        2539.456          45.250          40.800    90770569.613 8
  23130870.700        2433.705          48.600


 134390540.683 6 104719861.75345  25573669.620                    25573665.600
      2055.081        1601.372          37.700          33.650



 106957843.693 8  83343776.82348  20353394.720                    20353387.340
      -559.507        -435.980          48.600          48.300



 113773553.015 8  88654716.90346  21650377.020                    21650370.520
      1895.006        1476.628          48.050          41.600



 114568138.033 8  89273877.71147  21801579.400                    21801572.340
     -1793.852       -1397.807          49.000          46.000



 112040134.354 8  87304000.76047  21320523.620                    21320520.860
     -2397.230       -1867.972          49.900          46.950    83666339.799 8
  21320521.300       -1790.130          52.150


 110134314.997 8  85818954.77347  20957855.420                    20957850.920
      1865.695        1453.789          50.150          47.600    82243165.758 8
  20957852.400        1393.161          52.150


 132732581.339 7 103427959.85045  25258172.260                    25258168.380
     -3232.333       -2518.705          42.150          33.300



 18  6 25 13 54 30.0000000  0 10G07G08G10G15G16G20G21G26G27G29
 129894469.094 7 101216484.20045  24718092.600                    24718090.280
      1898.835        1479.613          43.650          35.200



 125757715.725 7  97993069.99546  23930897.700                    23930895.400
      3067.803        2390.496          43.150          39.400    93909995.674 8
  23930896.180        2291.056          49.650


 121455960.985 7  94641014.42946  23112291.560                    23112289.680
      3251.141        2533.356          45.000          40.950    90697649.800 8
  23112288.700        2427.722          49.050


 134329064.265 6 104671958.01744  25561970.980                    25561965.720
      2043.502        1592.337          38.400          27.950



 106974919.061 8  83357082.28647  20356644.120                    20356636.720
      -578.641        -450.890          48.750          47.700



 113716960.705 8  88610619.01246  21639607.940                    21639601.160
      1878.007        1463.383          48.550          40.900



 114622095.468 8  89315922.45947  21811847.160                    21811840.060
     -1803.154       -1405.056          48.950          45.600



 112112273.084 8  87360212.73447  21334251.100                    21334248.440
     -2411.828       -1879.348          49.900          46.450    83720209.609 8
  21334248.840       -1801.105          52.250


 110078497.151 8  85775460.36047  20947233.540                    20947229.160
      1855.629        1445.945          50.200          47.550    82201483.614 8
  20947230.460        1385.666          52.300


 132829556.773 6 103503525.04945  25276626.320                    25276622.360
     -3233.009       -2519.234          41.700          31.850



 18  6 25 13 55  0.0000000  0 10G07G08G10G15G16G20G21G26G27G29
 129837731.308 7 101172272.94745  24707296.200                    24707293.160
      1883.616        1467.754          43.950          34.750



 125665712.511 7  97921379.21546  23913390.040                    23913387.740
      3065.586        2388.771          43.450          38.600    93841292.018 8
  23913388.440        2289.313          49.750


 121358539.233 7  94565101.42546  23093752.800                    23093751.160
      3243.756        2527.603          45.300          41.050    90624899.844 8
  23093750.000        2422.280          49.200


                                  25550335.360                    25550327.320
      2032.700        1583.922          41.200          25.250



 106992551.884 8  83370822.13948  20359999.580                    20359992.220
      -596.823        -465.058          48.750          48.050



 113660863.743 7  88566907.12647  21628933.000                    21628926.380
      1861.811        1450.763          47.850          42.100



 114676322.329 8  89358177.14847  21822166.200                    21822158.960
     -1811.829       -1411.815          49.000          45.700



 112184838.056 8  87416756.84747  21348059.760                    21348057.060
     -2425.757       -1890.200          49.750          46.750    83774397.706 8
  21348057.540       -1811.454          52.250


 110022967.882 8  85732190.81647  20936666.600                    20936662.280
      1846.307        1438.681          50.050          47.800    82160016.956 8
  20936663.540        1378.777          52.350


 132926556.146 6 103579108.99144  25295084.840                    25295080.840
     -3233.410       -2519.542          41.250          29.800



 18  6 25 13 55 30.0000000  0 10G07G08G10G15G16G20G21G26G27G29
 129781460.531 7 101128425.59245  24696588.880                    24696584.940
      1868.016        1455.597          44.150          34.500



 125573789.796 7  97849751.14446  23895897.700                    23895895.320
      3062.825        2386.619          43.700          37.800    93772648.462 8
  23895896.100        2287.203          49.700


 121261348.526 7  94489368.45046  23075258.040                    23075256.420
      3235.812        2521.413          45.850          40.500    90552322.425 8
  23075255.260        2416.429          49.250


 134207105.825 6 104576892.72044  25538762.940                    25538759.380
      2021.605        1575.290          36.550          28.100



 107010743.090 8  83384997.08348  20363461.220                    20363453.880
      -615.627        -479.710          48.750          48.450



 113605265.063 8  88523583.50446  21618352.920                    21618346.400
      1845.046        1437.700          48.350          41.350



 114730817.966 8  89400641.27147  21832536.340                    21832529.140
     -1820.880       -1418.868          48.750          45.900



 112257828.329 8  87473632.35347  21361949.380                    21361946.740
     -2439.980       -1901.284          49.750          46.650    83828903.397 8
  21361947.100       -1822.032          52.150


 109967728.791 8  85689147.37747  20926154.880                    20926150.660
      1836.648        1431.154          50.150          47.900    82118767.005 8
  20926152.040        1371.477          52.400


 133023579.383 7 103654711.39244  25313547.880                    25313544.140
     -3234.359       -2520.284          42.550          28.600



 18  6 25 13 56  0.0000000  0 10G07G08G10G15G16G20G21G26G27G29
 129725661.947 7 101084946.23145  24685971.400                    24685966.820
      1852.438        1443.461          45.350          34.850



 125481951.842 7  97778189.14346  23878421.500                    23878419.080
      3059.999        2384.419          44.150          37.900    93704068.211 8
  23878419.700        2285.094          49.550


 121164395.494 7  94413820.71346  23056808.520                    23056806.900
      3227.953        2515.290          46.050          41.600    90479922.516 8
  23056805.680        2410.476          49.350


 134146637.109 6 104529821.10444  25527256.160                    25527251.480
      2010.324        1566.483          39.250          24.600



 107029496.086 8  83399609.80547  20367029.840                    20367022.480
      -634.113        -494.113          49.000          47.850



 113550170.372 8  88480652.60247  21607868.700                    21607862.260
      1828.296        1424.649          48.350          42.100



 114785584.225 8  89443316.27347  21842958.020                    21842950.820
     -1829.810       -1425.823          49.350          45.650



 112331245.906 8  87530840.84147  21375920.280                    21375917.680
     -2454.086       -1912.274          50.050          46.300    83883728.190 8
  21375917.980       -1832.620          52.200


 109912784.505 8  85646333.67247  20915699.260                    20915695.080
      1826.790        1423.475          50.400          47.600    82077737.205 8
  20915696.620        1364.172          52.450


 133120629.611 6 103730334.93145  25332015.740                    25332011.840
     -3235.100       -2520.856          40.800          31.850



 18  6 25 13 56 30.0000000  0 10G07G08G10G15G16G20G21G26G27G29
 129670334.715 7 101041834.16245  24675443.600                    24675437.780
      1836.345        1430.919          45.600          35.550



 125390196.834 7  97706691.75546  23860961.140                    23860958.740
      3056.926        2382.022          43.500          37.250    93635549.890 8
  23860959.300        2282.832          49.650


 121067680.056 7  94338458.09146  23038404.280                    23038402.460
      3219.671        2508.837          45.550          41.300    90407699.995 8
  23038401.200        2404.244          49.600


 134086509.479 6 104482968.51645  25515814.200                    25515809.940
      1998.188        1557.025          41.050          31.250



 107048807.997 8  83414658.03747  20370704.760                    20370697.400
      -653.290        -509.057          48.700          47.800



 113495578.799 7  88438113.74347  21597480.160                    21597473.900
      1811.028        1411.192          47.950          42.050



 114840616.509 8  89486198.56547  21853430.380                    21853423.080
     -1839.062       -1433.035          48.800          45.400



 112405086.144 8  87588378.66247  21389971.640                    21389968.940
     -2468.525       -1923.526          49.750          46.000    83938868.594 8
  21389969.440       -1843.406          52.250


 109858133.003 8  85603748.09447  20905299.420                    20905295.100
      1816.667        1415.586          50.200          47.400    82036926.028 8
  20905296.880        1356.517          52.550


 133217703.181 6 103805976.61145  25350488.180                    25350484.420
     -3236.497       -2521.942          41.250          31.600



 18  6 25 13 57  0.0000000  0 10G07G08G10G15G16G20G21G26G27G29
 129615483.735 7 100999093.17145  24665006.340                    24664999.640
      1820.771        1418.787          46.150          32.650



 125298528.831 7  97635262.16946  23843517.480                    23843514.760
      3054.298        2379.977          43.700          38.350    93567096.564 8
  23843515.340        2280.670          49.400


 120971208.194 7  94263285.25846  23020046.300                    23020044.180
      3211.535        2502.498          45.900          41.650    90335659.384 8
  23020043.300        2398.198          50.000


 134026728.600 7 104436440.06345  25504438.260                    25504431.280
      1987.017        1548.325          42.300          32.650



 107068681.617 8  83430143.96448  20374486.580                    20374479.240
      -671.742        -523.435          48.800          48.300



 113441495.403 8  88395970.85647  21587188.400                    21587182.120
      1794.294        1398.152          48.250          42.650



 114895916.451 8  89529289.42047  21863953.700                    21863946.280
     -1847.888       -1439.912          49.050          45.750



 112479350.491 8  87646246.96447  21404103.720                    21404101.040
     -2482.459       -1934.384          49.750          46.100    83994325.711 8
  21404101.560       -1853.837          52.250


 109803778.293 8  85561393.77847  20894956.100                    20894951.680
      1806.831        1407.922          50.400          47.850    81996336.489 8
  20894953.660        1349.279          52.600


 133314803.185 6 103881638.93245  25368965.520                    25368961.740
     -3237.056       -2522.383          41.600          30.700



 18  6 25 13 57 30.0000000  0 10G07G08G10G15G16G20G21G26G27G29
 129561106.323 7 100956721.20245  24654659.120                    24654651.860
      1804.213        1405.885          46.300          33.300



 125206943.886 7  97563897.30346  23826089.480                    23826086.640
      3051.139        2377.511          43.300          39.250    93498705.251 8
  23826087.180        2278.457          49.600


 120874978.202 7  94188300.90346  23001734.260                    23001731.940
      3203.278        2496.063          45.750          41.600    90263799.386 8
  23001731.540        2392.045          50.250


 133967292.294 6 104390126.16045  25493127.640                    25493123.960
      1975.019        1538.987          38.200          32.800



 107089112.656 8  83446064.24248  20378374.480                    20378367.140
      -690.764        -538.257          48.700          48.350



 113387917.710 8  88354222.01447  21576992.940                    21576986.540
      1777.164        1384.804          48.300          42.600



 114951477.505 8  89572583.73947  21874526.700                    21874519.160
     -1856.675       -1446.760          48.950          45.350



 112554032.672 8  87704440.84347  21418315.280                    21418312.560
     -2496.681       -1945.466          49.500          46.650    84050094.835 8
  21418313.180       -1864.373          52.300


 109749716.748 8  85519267.90547  20884668.660                    20884664.160
      1796.878        1400.165          50.500          47.900    81955965.864 8
  20884666.160        1341.785          52.600


 133411924.504 6 103957317.84345  25387446.960                    25387443.360
     -3237.768       -2522.936          40.800          30.750



 18  6 25 13 58  0.0000000  0 10G07G08G10G15G16G20G21G26G27G29
 129507209.562 7 100914723.74745  24644403.120                    24644395.740
      1788.363        1393.528          46.250          34.400



 125115448.748 7  97492602.41946  23808678.400                    23808675.620
      3048.073        2375.122          43.100          39.750    93430380.984 8
  23808676.040        2276.287          49.750


 120778998.647 7  94113511.66846  22983469.880                    22983467.460
      3194.929        2489.555          45.850          41.750    90192126.373 8
  22983467.340        2385.966          50.350


 133908209.410 6                  25481884.320
      1963.226                          36.500



 107110106.459 8  83462423.03848  20382369.480                    20382362.140
      -709.320        -552.719          48.600          48.150



 113334853.366 8  88312873.19347  21566895.240                    21566888.740
      1760.030        1371.451          48.300          42.200



 115007304.529 8  89616085.30347  21885150.260                    21885142.700
     -1865.409       -1453.567          48.850          45.350



 112629136.657 8  87762963.39547  21432607.120                    21432604.320
     -2510.646       -1956.351          49.650          46.550    84106178.934 8
  21432605.280       -1874.799          52.400


 109695954.971 8  85477375.61548  20874438.280                    20874433.700
      1786.970        1392.443          50.400          48.200    81915819.085 8
  20874435.560        1334.449          52.650


 133509071.315 6 104033016.64544  25405933.080                    25405929.780
     -3239.179       -2524.044          37.700          27.600



 18  6 25 13 58 30.0000000  0 10G07G08G10G15G16G20G21G26G27G29
 129453790.085 7 100873098.22245  24634237.740                    24634230.480
      1772.479        1381.152          45.850          33.150



 125024038.780 7  97421373.92846  23791283.600                    23791280.900
      3045.403        2373.042          43.200          37.150    93362120.349 8
  23791281.320        2274.160          49.600


 120683267.106 7  94038915.70946  22965252.720                    22965250.220
      3186.813        2483.231          46.150          41.200    90120638.587 8
  22965250.360        2379.811          50.250


 133849476.963 6 104298276.16745  25470707.820                    25470704.520
      1951.702        1520.815          40.100          31.000



 107131657.323 8  83479215.91948  20386470.500                    20386463.180
      -727.824        -567.137          48.900          48.100



 113282298.933 8  88271921.71746  21556894.500                    21556887.920
      1743.147        1358.298          48.650          41.750



 115063390.154 8  89659788.37847  21895823.100                    21895815.320
     -1873.787       -1460.095          49.200          44.700



 112704655.347 8  87821809.10847  21446977.920                    21446975.160
     -2524.259       -1966.956          49.900          46.300    84162572.746 8
  21446976.060       -1885.062          52.250


 109642488.500 8  85435713.44148  20864264.040                    20864259.320
      1777.262        1384.880          50.600          48.000    81875892.850 8
  20864261.060        1327.115          52.450


 133606238.471 6 104108731.26145  25424423.240                    25424419.620
     -3239.371       -2524.188          40.050          30.050



 18  6 25 13 59  0.0000000  0 10G07G08G10G15G16G20G21G26G27G29
 129400853.039 7 100831848.60645  24624163.820                    24624157.120
      1756.563        1368.750          45.750          35.300



 124932718.321 7  97350215.17246  23773905.900                    23773903.000
      3042.585        2370.846          43.950          38.500    93293926.537 8
  23773903.700        2271.941          49.500


 120587789.867 7  93964517.90346  22947084.000                    22947081.440
      3178.399        2476.676          46.650          40.850    90049340.720 8
  22947081.780        2373.356          50.400


 133791100.997 6 104252788.46045  25459599.400                    25459596.400
      1940.068        1511.751          41.300          30.500



 107153768.681 8  83496445.53647  20390678.100                    20390670.780
      -746.473        -581.668          48.950          47.800



 113230259.812 8  88231371.76547  21546991.920                    21546985.240
      1726.010        1344.943          49.050          42.600



 115119736.439 8  89703694.57247  21906545.560                    21906537.600
     -1882.620       -1466.978          49.250          44.600



 112780590.436 8  87880979.27847  21461428.000                    21461425.100
     -2538.118       -1977.755          50.000          46.300    84219277.487 8
  21461426.080       -1895.436          52.200


 109589321.738 8  85394284.80348  20854146.760                    20854141.980
      1767.211        1377.047          50.650          48.000    81836190.407 8
  20854143.640        1319.562          52.350


 133703428.939 6 104184464.08044  25442918.000                    25442913.740
     -3240.284       -2524.898          39.700          26.700



 18  6 25 13 59 30.0000000  0 10G07G08G10G15G16G20G21G26G27G29
 129348397.900 7 100790974.50045  24614181.700                    24614175.360
      1740.646        1356.349          46.350          34.350



 124841486.318 7  97279125.34046  23756545.080                    23756541.980
      3039.707        2368.606          43.950          39.050    93225798.786 8
  23756543.000        2270.027          49.750


 120492567.915 7  93890319.02146  22928963.940                    22928961.240
      3170.052        2470.172          46.550          40.850    89978233.455 8
  22928961.720        2367.279          50.600


 133733082.599 6 104207579.37444  25448559.300                    25448555.120
      1927.816        1502.194          38.950          28.750



 107176438.515 8  83514110.32948  20394992.000                    20394984.700
      -764.758        -595.916          48.750          48.050



 113178736.144 8  88191223.47347  21537187.380                    21537180.720
      1709.008        1331.695          48.750          43.000



 115176339.761 8  89747801.04547  21917316.840                    21917308.860
     -1890.805       -1473.354          49.000          44.550



 112856938.287 8  87940471.08447  21475956.580                    21475953.680
     -2551.561       -1988.229          49.950          46.550    84276290.447 8
  21475954.640       -1905.357          52.200


 109536453.661 8  85353088.90148  20844086.280                    20844081.560
      1757.539        1369.512          50.600          48.350    81796710.996 8
  20844083.100        1312.452          52.350


 133800640.045 6 104260212.91445  25461416.540                    25461412.140
     -3240.432       -2525.013          38.750          31.150



