     2.11           OBSERVATION DATA    G (GPS)             RINEX VERSION / TYPE
teqc  2018Jun8                          20190204 12:52:39UTCPGM / RUN BY / DATE
Linux 2.6.32-573.12.1.x86_64|x86_64|gcc -static|Linux 64|=+ COMMENT
teqc  2018Jun8                          20190204 12:52:39UTCCOMMENT
     2.11           OBSERVATION DATA    M (MIXED)           COMMENT
teqc  2018Jun8                          20190204 12:52:39UTCCOMMENT
teqc  2016Nov7      IGN-RGP             20180625 14:03:34UTCCOMMENT
Linux 2.4.21-27.ELsmp|Opteron|gcc|Linux x86_64|=+           COMMENT
teqc  2016Nov7      IGN-RGP             20180625 14:03:32UTCCOMMENT
   0.139      (antenna height)                              COMMENT
 +48.84444175 (latitude)                                    COMMENT
  +2.42501811 (longitude)                                   COMMENT
0126.237      (elevation)                                   COMMENT
BIT 2 OF LLI FLAGS DATA COLLECTED UNDER A/S CONDITION       COMMENT
10001M007 (COGO code)                                       COMMENT
SMNE                                                        MARKER NAME
10001M007                                                   MARKER NUMBER
Automatic           IGN                                     OBSERVER / AGENCY
5049K72135          TRIMBLE NETR9       4.85                REC # / TYPE / VERS
1441023107          TRM55971.00     NONE                    ANT # / TYPE
  4201792.2950   177945.2380  4779286.6850                  APPROX POSITION XYZ
        0.1390        0.0000        0.0000                  ANTENNA: DELTA H/E/N
     1     1                                                WAVELENGTH FACT L1/2
    21    L1    L2    C1    P1    P2    D1    D2    S1    S2# / TYPES OF OBSERV
          L5    C5    D5    S5    L7    C7    D7    S7    L8# / TYPES OF OBSERV
          C8    D8    S8                                    # / TYPES OF OBSERV
    30.0000                                                 INTERVAL
    18                                                      LEAP SECONDS
 SNR is mapped to RINEX snr flag value [0-9]                COMMENT
  L1 & L2: min(max(int(snr_dBHz/6), 0), 9)                  COMMENT
Forced Modulo Decimation to 30 seconds                      COMMENT
teqc_2018 edited: all GLONASS satellites excluded           COMMENT
teqc_2018 edited: all SBAS satellites excluded              COMMENT
teqc_2018 edited: all Galileo satellites excluded           COMMENT
  2018     6    25    13     0    0.0000000     GPS         TIME OF FIRST OBS
                                                            END OF HEADER
 18  6 25 13  0  0.0000000  0  9G26G21G10G27G29G20G05G16G31
 107040056.648 8  83407929.766 8  20369055.750                    20369062.074
                                        49.300          50.900    79932599.233 9
  20369061.086                          55.000


 110694839.696 7  86255713.17046  21064508.758                    21064511.359
                                        46.700          39.700



 132849360.052 6 103519091.218 6  25280407.688                    25280417.660
                                        38.300          36.900    99205800.190 6
  25280416.668                          40.400


 117626729.301 7  91657284.162 7  22383629.594                    22383635.547
                                        47.500          46.500    87838236.039 8
  22383634.641                          49.000


 122602237.365 7  95534265.172 6  23330432.180                    23330437.180
                                        47.000          40.000



 122320914.809 7  95315081.87244  23276903.383                    23276907.734
                                        43.000          26.900



 132844844.274 6 103515489.994 5  25279528.930                    25279534.727
                                        40.800          35.000



 108281225.467 7  84375006.94846  20605229.469                    20605232.457
                                        47.200          40.200



 128131663.550 7  99842876.081 6  24382652.750                    24382656.637
                                        42.100          36.800



 18  6 25 13  0 30.0000000  0  9G26G21G10G27G29G20G05G16G31
 107059472.155 8  83423058.714 8  20372750.469                    20372757.023
      -655.491        -510.776          51.700          51.300    79947097.813 9
  20372755.801        -489.490          55.200


 110710540.034 8  86267947.20746  21067496.914                    21067499.133
      -530.230        -413.165          49.000          40.300



 132743885.348 6 103436903.348 5  25260336.859                    25260346.145
      3517.071        2740.566          36.600          35.800    99127036.823 6
  25260345.207        2626.379          38.800


 117544864.909 7  91593493.748 7  22368050.906                    22368057.352
      2725.646        2123.881          47.300          46.900    87777103.569 7
  22368056.090        2035.382          47.900


 122692731.004 7  95604779.664 6  23347652.523                    23347657.766
     -3018.050       -2351.735          46.500          39.300



 122225579.070 7  95240794.33644  23258761.273                    23258765.438
      3174.559        2473.677          42.600          26.200



 132921424.304 6 103575162.752 5  25294102.156                    25294107.242
     -2559.013       -1994.047          37.100          33.200



 108241687.431 7  84344198.09746  20597705.781                    20597708.590
      1310.538        1021.197          47.600          40.300



 128238226.753 7  99925912.243 6  24402930.750                    24402935.328
     -3552.787       -2768.410          42.300          37.600



 18  6 25 13  1  0.0000000  0  9G26G21G10G27G29G20G05G16G31
 107079405.492 8  83438591.179 8  20376543.406                    20376550.238
      -672.785        -524.255          50.900          50.900    79961983.091 9
  20376549.195        -502.412          55.200


 110726669.108 7  86280515.32046  21070565.773                    21070568.152
      -544.537        -424.314          46.800          39.700



 132638336.054 6 103354657.297 5  25240252.258                    25240260.438
      3519.494        2742.463          38.800          35.200    99048217.734 6
  25240260.676        2628.188          40.200


 117463198.252 7  91529857.425 7  22352510.391                    22352517.000
      2719.025        2118.720          47.300          46.500    87716118.759 8
  22352516.266        2030.441          49.100


 122783324.368 7  95675371.830 6  23364891.773                    23364896.063
     -3021.392       -2354.338          46.200          39.200



 122130450.675 7  95166668.37244  23240658.336                    23240662.715
      3167.559        2468.227          43.700          26.700



 132998398.738 6 103635142.803 5  25308749.820                    25308755.594
     -2572.131       -2004.270          41.800          33.600



 108202611.594 7  84313749.40446  20590269.727                    20590272.324
      1295.055        1009.132          47.300          40.100



 128344832.919 7 100008981.893 5  24423217.266                    24423221.277
     -3554.232       -2769.532          42.100          35.300



 18  6 25 13  1 30.0000000  0  9G26G21G10G27G29G20G05G16G31
 107099856.912 8  83454527.342 8  20380435.578                    20380442.004
      -690.027        -537.681          50.200          51.000    79977255.243 9
  20380441.016        -515.281          55.200


 110743226.566 8  86293417.24446  21073716.555                    21073719.414
      -558.776        -435.413          48.500          39.200



 132532714.830 6 103272355.155 5  25220151.445                    25220160.438
      3521.875        2744.316          36.400          35.100    98969344.931 6
  25220161.965        2629.968          39.900


 117381730.360 8  91466375.984 7  22337007.656                    22337014.059
      2712.401        2113.559          48.100          46.600    87655282.380 8
  22337012.973        2025.494          48.700


 122874016.718 7  95746041.134 6  23382150.000                    23382155.711
     -3024.650       -2356.872          46.000          39.200



 122035532.646 7  95092706.33844  23222595.688                    23222600.449
      3160.562        2462.771          42.200          26.500



 133075765.348 6 103695428.455 6  25323471.828                    25323477.566
     -2585.144       -2014.401          39.900          36.100



 108163999.540 7  84283662.08746  20582922.227                    20582924.992
      1279.600         997.094          46.800          39.800



 128451479.408 7 100092082.957 5  24443511.141                    24443515.078
     -3555.473       -2770.499          44.800          34.800



 18  6 25 13  2  0.0000000  0  9G26G21G10G27G29G20G05G16G31
 107120826.164 8  83470867.010 8  20384425.375                    20384432.355
      -707.330        -551.165          50.800          51.000    79992914.086 9
  20384431.309        -528.197          55.200


 110760210.483 8  86306651.46846  21076948.844                    21076950.969
      -572.994        -446.491          49.200          39.900



 132427024.043 5 103189998.911 5  25200040.094                    25200048.895
      3524.131        2746.083          35.900          35.900    98890420.208 6
  25200048.547        2631.653          40.200


 117300461.781 7  91403049.849 7  22321542.570                    22321548.902
      2705.730        2108.350          47.800          46.300    87594594.839 8
  22321548.578        2020.506          49.300


 122964807.117 7  95816786.848 6  23399426.711                    23399431.922
     -3027.909       -2359.405          45.900          38.400



 121940827.735 7  95018910.36444  23204574.438                    23204577.891
      3153.380        2457.173          42.500          24.700



 133153521.035 6 103756017.256 5  25338268.688                    25338274.277
     -2598.097       -2024.491          40.200          34.900



 108125852.784 7  84253937.35946  20575663.094                    20575665.645
      1264.033         984.957          46.800          40.200



 128558163.214 7 100175213.073 6  24463812.578                    24463816.570
     -3556.699       -2771.445          45.500          36.300



 18  6 25 13  2 30.0000000  0  9G26G21G10G27G29G20G05G16G31
 107142313.220 8  83487610.160 8  20388514.445                    20388521.250
      -724.553        -564.590          50.500          51.200    80008959.603 9
  20388520.027        -541.065          54.900


 110777620.115 8  86320217.42546  21080261.766                    21080263.898
      -587.134        -457.510          49.200          39.400



 132321266.198 6 103107590.396 6  25179913.516                    25179924.195
      3526.344        2747.794          36.000          36.600    98811445.419 6
  25179923.316        2633.294          40.500


 117219393.298 7  91339879.637 7  22306115.797                    22306122.168
      2699.093        2103.188          47.700          46.700    87534056.724 8
  22306121.082        2015.552          48.900


 123055694.805 7  95887608.360 6  23416722.375                    23416727.188
     -3031.118       -2361.900          44.900          38.800



 121846339.011 6  94945282.83044  23186593.273                    23186597.113
      3146.138        2451.535          41.000          26.000



 133231663.340 7 103816907.363 5  25353138.578                    25353144.207
     -2610.928       -2034.507          42.600          34.800



 108088173.228 7  84224576.66346  20568492.906                    20568495.406
      1248.486         972.851          47.500          40.100



 128664881.647 7 100258370.208 5  24484120.281                    24484124.238
     -3557.788       -2772.313          44.300          34.500



 18  6 25 13  3  0.0000000  0  9G26G21G10G27G29G20G05G16G31
 107164318.301 8  83504756.963 8  20392702.047                    20392708.980
      -741.810        -578.028          49.800          51.400    80025391.961 9
  20392707.582        -553.949          54.900


 110795454.156 7  86334114.08846  21083655.188                    21083657.520
      -601.269        -468.526          46.800          39.700



 132215444.144 6 103025131.807 6  25159777.148                    25159786.531
      3528.424        2749.415          37.200          36.500    98732422.627 6
  25159786.711        2634.847          41.100


 117138525.990 8  91276866.178 7  22290727.750                    22290733.457
      2692.362        2097.945          48.200          46.000    87473668.842 8
  22290732.727        2010.526          49.100


 123146678.871 7  95958504.959 6  23434035.969                    23434041.363
     -3034.296       -2364.381          45.600          39.600



 121752069.568 7  94871826.18244  23168654.828                    23168658.070
      3138.748        2445.778          42.100          25.700



 133310190.179 5 103878097.070 5  25368082.594                    25368087.816
     -2623.738       -2044.467          34.900          31.500



 108050962.093 8  84195580.98046  20561411.672                    20561414.832
      1232.853         960.665          48.800          40.800



 128771632.484 7 100341552.563 6  24504434.688                    24504439.063
     -3558.814       -2773.101          44.100          37.000



 18  6 25 13  3 30.0000000  0  9G26G21G10G27G29G20G05G16G31
 107186841.283 8  83522307.339 8  20396987.766                    20396994.949
      -759.134        -591.529          51.500          50.900    80042211.067 9
  20396993.316        -566.883          54.700


 110813711.587 8  86348340.65846  21087129.414                    21087131.590
      -615.425        -479.545          48.200          39.200



 132109560.318 5 102942625.089 5  25139627.406                    25139636.891
      3530.421        2750.961          34.600          35.800    98653353.729 6
  25139637.012        2636.349          41.400


 117057860.514 7  91214009.984 7  22275377.070                    22275383.441
      2685.579        2092.658          47.400          46.100    87413431.666 8
  22275382.770        2005.463          48.900


 123237758.681 7  96029476.206 6  23451367.719                    23451372.254
     -3037.511       -2366.896          46.000          38.400



 121658022.239 7  94798542.59544  23150758.359                    23150762.125
      3131.292        2439.966          43.100          26.400



 133389098.932 6 103939584.396 5  25383096.969                    25383103.215
     -2636.416       -2054.343          39.200          33.200



 108014221.019 7  84166951.58246  20554420.344                    20554422.848
      1217.087         948.379          47.900          40.400



 128878412.699 7 100424757.813 5  24524753.750                    24524758.344
     -3559.785       -2773.842          44.300          35.200



 18  6 25 13  4  0.0000000  0  9G26G21G10G27G29G20G05G16G31
 107209881.968 8  83540261.104 8  20401372.266                    20401379.246
      -776.359        -604.959          50.300          51.400    80059416.752 9
  20401377.906        -579.746          54.600


 110832390.706 7  86362895.82246  21090684.078                    21090686.004
      -629.425        -490.465          47.200          38.900



 132003617.217 6 102860072.187 6  25119466.852                    25119476.813
      3532.347        2752.478          36.300          36.400    98574240.562 6
  25119476.875        2637.784          41.200


 116977397.563 8  91151311.603 7  22260065.477                    22260071.613
      2678.829        2087.404          48.000          46.400    87353345.726 8
  22260070.707        2000.424          49.000


 123328933.054 7  96100521.133 6  23468717.438                    23468722.898
     -3040.668       -2369.342          44.700          38.900



 121564199.782 7  94725434.23844  23132904.336                    23132908.184
      3123.763        2434.108          42.000          26.400



 133468386.919 6 104001367.303 6  25398185.211                    25398190.547
     -2649.025       -2064.171          40.400          36.600



 107977951.602 7  84138689.69846  20547519.008                    20547521.305
      1201.359         936.126          47.600          40.400



 128985219.689 7 100507983.934 6  24545078.609                    24545083.723
     -3560.628       -2774.510          45.400          36.400



 18  6 25 13  4 30.0000000  0 10G26G21G10G08G27G29G20G05G16G31
 107233440.426 8  83558618.330 8  20405855.266                    20405862.133
      -793.588        -618.383          50.900          50.700    80077009.095 9
  20405860.676        -592.611          54.500


 110851490.710 7  86377778.94346  21094318.461                    21094320.766
      -643.391        -501.342          47.500          39.100



 131897617.491 6 102777475.141 6  25099296.102                    25099306.242
      3534.226        2753.938          38.000          37.700    98495085.089 7
  25099305.480        2639.193          42.200


 135182204.427 5                  25724319.086
      3220.123                          30.100



 116897138.027 7  91088771.746 7  22244792.305                    22244798.836
      2672.064        2082.124          47.100          46.600    87293411.694 8
  22244798.105        1995.370          49.300


 123420201.199 7  96171639.102 6  23486085.516                    23486090.539
     -3043.748       -2371.754          45.000          38.100



 121470605.661 6  94652503.80744  23115093.953                    23115097.426
      3116.125        2428.150          41.300          26.800



 133548051.641 6 104063443.624 5  25413345.898                    25413350.793
     -2661.495       -2073.892          39.700          34.700



 107942155.310 8  84110796.48946  20540706.953                    20540709.676
      1185.584         923.827          48.200          40.800



 129092050.808 7 100591228.855 6  24565408.867                    24565412.707
     -3561.378       -2775.095          45.800          37.600



 18  6 25 13  5  0.0000000  0 10G26G21G10G08G27G29G20G05G16G31
 107257516.607 8  83577378.975 8  20410437.008                    20410443.906
      -810.880        -631.855          51.500          51.400    80094988.045 9
  20410442.566        -605.527          55.000


 110871010.567 8  86392989.22646  21098033.281                    21098035.523
      -657.427        -512.280          49.000          39.600



 131791563.879 6 102694836.133 6  25079114.383                    25079123.285
      3535.946        2755.276          37.100          37.400    98415889.392 7
  25079123.758        2640.476          42.300


 135085618.50415                  25705938.711
      3219.388                          30.100



 116817082.769 7  91026391.069 7  22229558.367                    22229564.434
      2665.221        2076.795          46.900          46.400    87233630.222 8
  22229563.703        1990.264          49.200


 123511562.401 7  96242829.609 6  23503471.031                    23503475.805
     -3046.876       -2374.193          45.400          38.300



 121377242.472 6  94579753.34544  23097328.172                    23097331.863
      3108.342        2422.082          41.400          27.100



 133628090.766 6 104125811.735 5  25428576.391                    25428581.438
     -2673.971       -2083.602          41.600          34.500



 107906833.908 8  84083273.31346  20533985.375                    20533987.805
      1169.706         911.465          48.200          40.900



 129198903.589 7 100674490.678 6  24585742.273                    24585747.141
     -3562.094       -2775.656          46.200          37.300



 18  6 25 13  5 30.0000000  0  9G26G21G10G27G29G20G05G16G31
 107282110.278 8  83596542.871 8  20415117.000                    20415123.746
      -828.130        -645.294          51.200          50.700    80113353.440 9
  20415122.586        -618.404          54.700


 110890948.971 7  86408525.64846  21101827.078                    21101829.547
      -671.331        -523.111          47.800          39.200



 131685458.870 6 102612157.028 6  25058923.188                    25058932.688
      3537.621        2756.587          38.500          37.900    98336655.297 7
  25058932.453        2641.728          42.400


 116737232.506 7  90964170.109 7  22214363.008                    22214369.535
      2658.361        2071.448          47.600          46.600    87174001.821 8
  22214368.859        1985.140          49.000


 123603015.682 7  96314091.862 6  23520874.031                    23520878.777
     -3049.938       -2376.569          44.600          38.600



 121284113.231 6  94507185.16544  23079605.117                    23079609.469
      3100.495        2415.966          41.200          26.400



 133708501.651 6 104188469.672 5  25443878.539                    25443883.137
     -2686.298       -2093.241          38.800          31.200



 107871988.712 8  84056121.22646  20527354.531                    20527357.258
      1153.813         899.070          48.100          40.900



 129305775.047 7 100757767.035 6  24606079.078                    24606083.633
     -3562.671       -2776.106          46.000          37.200



 18  6 25 13  6  0.0000000  0 10G26G21G10G08G27G29G20G05G16G31
 107307221.382 8  83616109.956 8  20419895.477                    20419901.980
      -845.365        -658.726          49.500          50.600    80132105.232 9
  20419900.934        -631.278          54.500


 110911304.590 7  86424387.16846  21105700.297                    21105703.293
      -685.215        -533.928          46.500          38.700



 131579305.041 6 102529439.907 6  25038722.352                    25038732.293
      3539.221        2757.838          37.000          37.700    98257384.738 7
  25038732.469        2642.919          42.100


 134892462.633 5 105111064.560 5  25669187.430                    25669195.371
      3218.263        2507.756          35.000          35.200   100731435.262 6
  25669194.793        2403.231          41.000


 116657588.080 7  90902109.543 7  22199207.563                    22199213.211
      2651.488        2066.092          47.300          45.600    87114527.121 8
  22199212.598        1980.009          48.800


 123694560.509 7  96385425.455 6  23538294.461                    23538299.375
     -3052.931       -2378.907          45.200          39.100



 121191220.880 6  94434801.58344  23061928.453                    23061932.883
      3092.590        2409.814          40.600          26.000



 133789282.265 6 104251415.576 6  25459250.523                    25459255.438
     -2698.580       -2102.769          40.200          37.200



 107837621.253 7  84029341.38446  20520814.672                    20520816.867
      1137.881         886.658          47.100          40.500



 129412662.650 7 100841055.936 6  24626418.734                    24626424.012
     -3563.150       -2776.470          44.500          37.100



 18  6 25 13  6 30.0000000  0 10G26G21G10G08G27G29G20G05G16G31
 107332849.458 8  83636079.874 8  20424772.047                    20424778.762
      -862.581        -672.146          50.300          50.300    80151243.075 9
  20424777.836        -644.138          54.700


 110932075.936 7  86440572.63546  21109653.289                    21109655.832
      -699.049        -544.712          47.000          39.300



 131473104.716 6 102446686.530 6  25018513.406                    25018522.184
      3540.767        2759.040          37.500          37.500    98178079.451 7
  25018521.949        2644.071          42.400


 134795948.517 5 105035844.257 6  25650816.367
      3217.735        2507.328          34.500          38.700   100659345.355 7
  25650825.273        2402.842          43.800


 116578149.986 7  90840209.744 7  22184090.813                    22184096.348
      2644.587        2060.718          46.600          45.300    87055206.505 8
  22184095.789        1974.851          49.000


 123786195.795 7  96456829.496 6  23555733.250                    23555738.285
     -3055.933       -2381.245          44.700          38.500



 121098568.116 6  94362604.69044  23044296.820                    23044302.207
      3084.524        2403.523          40.800          27.500



 133870429.084 5 104314646.787 5  25474691.688                    25474696.941
     -2710.726       -2112.249          35.300          34.700



 107803732.813 7  84002934.82146  20514365.539                    20514368.430
      1121.896         874.199          47.600          40.400



 129519563.510 7 100924355.207 6  24646761.852                    24646766.578
     -3563.540       -2776.777          45.300          37.700



 18  6 25 13  7  0.0000000  0 10G26G21G10G08G27G29G20G05G16G31
 107358994.909 8  83656452.940 8  20429747.516                    20429754.574
      -879.865        -685.605          50.100          50.300    80170767.263 9
  20429753.645        -657.040          54.500


 110953262.516 8  86457081.66346  21113685.055                    21113687.574
      -712.911        -555.517          48.400          39.600



 131366861.118 6 102363899.441 6  24998294.680                    24998304.949
      3542.096        2760.071          36.900          37.300    98098741.841 6
  24998304.719        2645.075          41.500


 134699464.739 5                  25632449.492
      3217.027                          33.100



 116498919.527 7  90778471.761 7  22169013.922                    22169019.953
      2637.621        2055.284          47.100          45.600    86996040.951 8
  22169019.453        1969.647          48.900


 123877920.855 7  96528303.525 6  23573187.117                    23573192.742
     -3058.946       -2383.598          44.700          39.200



 121006158.239 6  94290597.07244  23026711.969                    23026716.641
      3076.405        2397.188          40.900          26.400



 133951940.348 6 104378162.016 5  25490202.914                    25490207.457
     -2722.912       -2121.755          41.300          34.800



 107770325.391 8  83976903.07046  20508008.570                    20508010.855
      1105.798         861.658          48.000          40.400



 129626475.295 7 101007662.969 6  24667105.398                    24667110.957
     -3563.903       -2777.039          43.600          38.800



 18  6 25 13  7 30.0000000  0 10G26G21G10G08G27G29G20G05G16G31
 107385657.540 8  83677229.006 8  20434821.203                    20434827.961
      -897.105        -699.037          50.700          50.400    80190677.664 9
  20434826.684        -669.918          54.500


 110974862.564 8  86473912.87446  21117795.500                    21117798.125
      -726.672        -566.244          48.300          39.100



 131260576.850 6 102281080.657 6  24978069.984                    24978079.184
      3543.393        2761.083          37.600          38.600    98019373.846 7
  24978079.363        2646.033          42.400


 134602962.620 4 104885423.46142  25614085.031                    25614092.340
      3216.425        2506.477          24.600          12.600



 116419897.556 7  90716896.225 7  22153976.242                    22153982.453
      2630.687        2049.885          46.600          46.100    86937031.077 8
  22153981.602        1964.480          49.100


 123969734.622 7  96599846.664 6  23590659.406                    23590664.246
     -3061.904       -2385.892          46.000          39.400



 120913994.431 6  94218781.18744  23009173.695                    23009178.176
      3068.127        2390.748          41.600          27.800



 134033813.793 6 104441959.554 5  25505784.180                    25505787.090
     -2734.896       -2131.089          39.500          31.700



 107737400.609 8  83951247.40246  20501743.148                    20501745.828
      1089.666         849.089          48.100          40.200



 129733395.764 6 101090977.489 6  24687452.633                    24687457.762
     -3564.160       -2777.266          41.200          36.300



 18  6 25 13  8  0.0000000  0 10G26G21G10G08G27G29G20G05G16G31
 107412837.067 8  83698407.853 8  20439993.500                    20440000.238
      -914.314        -712.455          50.800          50.600    80210974.054 9
  20439998.957        -682.768          54.500


 110996875.237 8  86491065.59746  21121984.492                    21121986.719
      -740.401        -576.936          49.500          39.900



 131154254.536 6 102198232.188 6  24957838.078                    24957847.238
      3544.623        2762.044          36.000          38.300    97939977.443 7
  24957846.422        2646.951          42.300


 134506479.664 5 104810248.359 6  25595724.461                    25595732.898
      3215.875        2505.864          33.000          37.400   100443149.005 6
  25595732.965        2401.456          41.500


 116341084.795 7  90655483.725 7  22138979.141                    22138984.895
      2623.713        2044.451          47.100          46.500    86878177.431 8
  22138984.043        1959.265          49.100


 124061636.381 7  96671458.393 6  23608147.797                    23608152.500
     -3064.786       -2388.138          44.800          39.600



 120822079.464 7  94147159.17944  22991682.313                    22991687.777
      3059.806        2384.274          42.100          27.200



 134116046.718 6 104506037.180 5  25521431.422                    25521436.258
     -2746.851       -2140.390          36.700          33.400



 107704959.552 7  83925968.66246  20495569.672                    20495572.449
      1073.560         836.542          47.600          40.000



 129840321.844 6 101174296.352 5  24707800.164                    24707805.754
     -3564.265       -2777.358          41.600          34.900



 18  6 25 13  8 30.0000000  0 10G26G21G10G08G27G29G20G05G16G31
 107440533.294 8  83719989.323 8  20445263.938                    20445270.824
      -931.517        -725.859          50.900          50.400    80231656.293 9
  20445269.605        -695.617          54.500


 111019299.045 8  86508538.68946  21126251.656                    21126254.195
      -754.074        -587.592          48.500          39.700



 131047896.728 6 102115356.075 6  24937598.469                    24937608.109
      3545.794        2762.958          37.700          38.300    97860554.524 7
  24937607.699        2647.827          42.700


 134410015.865 4 104735081.78014  25577368.336                    25577376.258
      3215.074                          28.900          27.600   100371114.46115
  25577375.625                          32.400


 116262482.071 7  90594234.874 7  22124021.125                    22124027.188
      2616.719        2039.006          47.200          46.400    86819480.629 8
  22124026.223        1954.049          48.500


 124153625.330 7  96743138.039 6  23625653.086                    23625657.199
     -3067.694       -2390.411          44.700          39.400



 120730416.186 7  94075733.30644  22974240.297                    22974244.680
      3051.337        2377.663          42.200          27.000



 134198636.332 6 104570392.568 5  25537147.797                    25537152.441
     -2758.667       -2149.612          38.100          33.600



 107673004.128 8  83901068.34046  20489489.055                    20489491.070
      1057.349         823.906          48.000          40.100



 129947250.921 6 101257617.620 5  24728147.508                    24728153.449
     -3564.310       -2777.381          40.600          35.500



 18  6 25 13  9  0.0000000  0 10G26G21G10G08G27G29G20G05G16G31
 107468745.721 8  83741973.017 8  20450632.797                    20450639.465
      -948.679        -739.233          50.000          50.900    80252724.000 9
  20450638.422        -708.430          54.500


 111042132.457 8  86526330.96146  21130596.742                    21130599.277
      -767.637        -598.157          48.900          39.900



 130941505.855 6 102032454.185 6  24917352.500                    24917362.566
      3546.938        2763.847          37.400          38.100    97781106.883 7
  24917361.746        2648.685          42.500


 134313572.060 5 104659930.677 6  25559016.398                    25559023.766
      3214.521        2504.827          32.900          36.300   100299094.558 7
  25559023.953        2400.458          42.100


 116184089.899 7  90533150.093 7  22109103.219                    22109109.758
      2609.710        2033.545          47.500          45.400    86760941.058 7
  22109108.379        1948.809          47.700


 124245700.819 7  96814885.120 6  23643173.742                    23643178.520
     -3070.505       -2392.597          45.300          38.900



 120639007.544 7  94004505.86244  22956845.844                    22956850.180
      3042.840        2371.041          42.500          28.100



 134281579.807 6 104635023.937 5  25552931.766                    25552936.047
     -2770.462       -2158.806          39.400          34.400



 107641535.117 8  83876547.04046  20483500.273                    20483503.102
      1041.178         811.307          48.400          40.600



 130054180.135 6 101340938.970 5  24748495.617                    24748501.336
     -3564.248       -2777.330          39.700          34.900



 18  6 25 13  9 30.0000000  0 10G26G21G10G08G27G29G20G05G16G31
 107497474.833 8  83764359.328 8  20456099.547                    20456106.391
      -965.916        -752.666          51.200          50.800    80274177.542 9
  20456105.230        -721.298          54.600


 111065374.959 8  86544442.00646  21135019.313                    21135022.219
      -781.281        -608.795          48.400          39.200



 130835085.311 6 101949529.191 6  24897101.891                    24897111.445
      3547.853        2764.560          38.800          38.200    97701637.124 7
  24897111.156        2649.368          43.500


 134217149.257 6 104584796.175 5  25540667.695                    25540674.645
      3213.828        2504.293          37.900          33.200   100227090.719 6
  25540675.180        2399.949          39.700


 116105909.786 7  90472230.558 7  22094226.898                    22094232.207
      2602.601        2027.996          47.300          45.800    86702559.832 7
  22094230.887        1943.498          47.500


 124337862.211 7  96886699.155 6  23660712.133                    23660716.328
     -3073.399       -2394.855          44.900          39.600



 120547856.694 7  93933479.30244  22939500.180                    22939504.867
      3034.208        2364.317          42.400          27.500



 134364875.352 6 104699929.514 5  25568782.320                    25568786.488
     -2782.141       -2167.901          39.200          30.600



 107610554.554 7  83852406.34746  20477604.766                    20477607.613
      1024.849         798.582          46.900          40.500



 130161107.675 6 101424258.983 5  24768843.367                    24768849.621
     -3564.172       -2777.276          39.200          34.200



 18  6 25 13 10  0.0000000  0 10G26G21G10G08G27G29G20G05G16G31
 107526719.774 8  83787147.576 8  20461664.813                    20461671.563
      -983.143        -766.086          50.300          50.000    80296016.282 9
  20461670.754        -734.165          54.800


 111089024.543 8  86562870.25446  21139520.156                    21139522.570
      -794.880        -619.384          48.700          39.400



 130728637.241 6 101866582.751 6  24876846.023                    24876854.879
      3548.646        2765.174          38.900          38.900    97622146.815 7
  24876853.828        2649.958          43.000


 134120747.436 5 104509677.825 5  25522322.352
      3213.034        2503.669          34.000          30.800   100155102.326 5
  25522328.395        2399.337          34.100


 116027941.995 8  90411476.452 7  22079389.414                    22079395.461
      2595.499        2022.465          48.200          47.200    86644337.149 8
  22079394.082        1938.195          48.300


 124430108.310 7  96958579.162 6  23678265.641                    23678270.355
     -3076.233       -2397.059          44.100          38.400



 120456966.401 7  93862655.74944  22922203.578                    22922208.734
      3025.477        2357.514          42.600          28.500



 134448519.955 6 104765107.092 5  25584699.313                    25584703.316
     -2793.738       -2176.905          39.800          34.000



 107580063.647 7  83828647.20146  20471802.938                    20471805.371
      1008.441         785.794          47.300          40.900



 130268030.360 6 101507575.190 5  24789190.125                    24789196.488
     -3563.992       -2777.121          39.600          33.600



 18  6 25 13 10 30.0000000  0 10G26G21G10G08G27G29G20G05G16G31
 107556480.600 8  83810337.819 8  20467328.133                    20467334.840
     -1000.291        -779.451          51.100          50.300    80318240.266 9
  20467333.793        -746.977          54.700


 111113080.636 8  86581615.26446  21144097.633                    21144100.398
      -808.362        -629.896          48.700          39.400



 130622164.466 6 101783617.097 6  24856583.328                    24856593.797
      3549.465        2765.825          37.500          37.500    97542638.046 7
  24856592.688        2650.573          43.000


 134024367.388 5 104434576.643 5  25503982.727                    25503990.090
      3212.384        2503.195          34.700          34.900   100083130.380 6
  25503990.336        2398.885          40.900


 115950187.637 8  90350888.657 7  22064593.367                    22064599.355
      2588.401        2016.938          49.500          46.800    86586273.848 8
  22064598.273        1932.900          48.600


 124522438.525 7  97030524.738 6  23695835.281                    23695840.316
     -3078.982       -2399.207          44.500          38.400



 120366339.768 6  93792037.65444  22904957.656                    22904962.852
      3016.610        2350.594          41.600          28.100



 134532511.475 6 104830555.091 5  25600680.984
     -2805.264       -2185.912          36.800          34.500



 107550063.875 7  83805270.76146  20466093.906                    20466096.582
       992.120         773.078          46.600          39.900



 130374945.699 6 101590885.691 5  24809535.875                    24809541.496
     -3563.691       -2776.888          39.300          35.600



 18  6 25 13 11  0.0000000  0 10G26G21G10G08G27G29G20G05G16G31
 107586756.804 8  83833929.656 8  20473089.391                    20473095.988
     -1017.500        -792.859          49.400          50.200    80340849.104 9
  20473095.063        -759.818          54.700


 111137541.348 8  86600675.56546  21148752.219                    21148754.656
      -821.802        -640.367          49.300          39.500



 130515669.547 6 101700634.145 6  24836318.195                    24836328.348
      3550.187        2766.362          37.600          38.000    97463112.779 7
  24836327.938        2651.099          43.700


 133928008.798 6 104359492.066 5  25485646.359
      3211.609        2502.544          36.400          30.700   100011174.324 6
  25485653.395        2398.272          40.400


 115872647.321 8  90290467.662 7  22049837.820                    22049843.902
      2581.252        2011.369          48.900          47.300    86528370.393 8
  22049842.816        1927.555          48.400


 124614852.063 7  97102535.222 6  23713421.422                    23713426.039
     -3081.771       -2401.379          44.900          39.200



 120275979.648 7  93721627.24144  22887762.555                    22887768.246
      3007.666        2343.642          42.400          28.500



 134616847.198 6 104896271.244 5  25616731.164                    25616734.863
     -2816.633       -2194.771          39.000          33.600



 107520556.630 8  83782278.10046  20460478.930                    20460481.344
       975.642         760.243          48.400          40.600



 130481850.805 6 101674188.285 6  24829878.281                    24829885.008
     -3563.266       -2776.573          40.800          36.200



 18  6 25 13 11 30.0000000  0 11G26G21G10G08G27G29G20G07G05G16G31
 107617548.481 8  83857923.155 8  20478948.742                    20478955.563
     -1034.654        -806.223          50.600          50.900    80363842.883 9
  20478954.578        -772.632          54.500


 111162405.574 8  86620050.28446  21153483.828                    21153486.180
      -835.260        -650.847          48.500          40.600



 130409155.727 6 101617636.479 6  24816050.172                    24816059.215
      3550.781        2766.836          39.400          38.800    97383573.358 7
  24816058.516        2651.562          42.800


 133831673.344 6 104284425.510 5  25467313.516                    25467322.305
      3210.879        2502.005          37.900          35.500    99939235.542 7
  25467323.137        2397.738          42.800


 115795322.285 8  90230214.416 7  22035123.438                    22035129.613
      2574.056        2005.760          50.000          46.500    86470627.708 8
  22035128.648        1922.182          48.500


 124707348.211 7  97174610.093 6  23731022.703                    23731026.879
     -3084.512       -2403.514          44.300          39.000



 120185889.385 7  93651427.09444  22870619.539                    22870624.117
      2998.651        2336.606          42.500          29.100



 136273757.687 5 106187377.666 4  25932038.539
      2974.411        2317.727          31.900          29.900



 134701422.462 6                  25632845.031
     -2828.034                          36.200



 107491543.663 7  83759670.59246  20454958.180                    20454961.176
       959.158         747.395          47.800          40.600



 130588743.803 6 101757481.364 6  24850220.328                    24850226.641
     -3562.852       -2776.245          40.800          36.400



 18  6 25 13 12  0.0000000  0 11G26G21G10G08G27G29G20G07G05G16G31
 107648854.684 8  83882317.593 8  20484906.578                    20484912.965
     -1051.829        -819.604          50.800          50.700    80387220.876 9
  20484912.152        -785.455          54.300


 111187671.859 8  86639738.30846  21158292.125                    21158294.633
      -848.686        -661.315          49.000          40.300



 130302624.915 6 101534625.581 6  24795777.508                    24795786.848
      3551.278        2767.228          39.700          38.800    97304021.269 7
  24795786.617        2651.927          44.100


 133735360.484 5 104209376.570 5  25448985.461                    25448994.301
      3210.044        2501.342          35.400          35.800    99867313.594 6
  25448993.898        2397.113          41.600


 115718212.715 8  90170129.054 7  22020449.703                    22020456.160
      2566.837        2000.134          49.300          47.200    86413045.899 8
  22020455.191        1916.795          48.400


 124799925.950 7  97246748.503 6  23748638.875                    23748644.113
     -3087.239       -2405.634          44.100          39.200



 120096071.097 6  93581438.89544  22853528.289                    22853531.957
      2989.545        2329.510          41.900          29.100



 136184663.090 5 106117953.293 5  25915085.414
      2965.457        2310.756          35.500          34.800



 134786439.196 6 105028472.306 5  25649022.484                    25649026.410
     -2839.333       -2212.483          36.300          32.300



 107463025.633 7  83737448.75746  20449530.898                    20449533.930
       942.610         734.504          47.200          40.700



 130695621.274 6 101840762.390 6  24870558.133                    24870564.742
     -3562.319       -2775.826          38.900          38.000



 18  6 25 13 12 30.0000000  0 11G26G21G10G08G27G29G20G07G05G16G31
 107680675.784 8  83907113.245 8  20490961.719                    20490968.145
     -1068.963        -832.952          51.300          50.200    80410983.374 9
  20490967.273        -798.251          54.400


 111213339.792 8  86659739.29646  21163176.406                    21163178.613
      -862.015        -671.706          49.000          39.800



 130196080.521 6 101451604.088 6  24775503.148                    24775512.258
      3551.724        2767.570          40.300          39.200    97224459.059 7
  24775512.027        2652.254          43.800


 133639071.451 6 104134346.212 5  25430663.133                    25430670.867
      3209.280        2500.744          37.900          35.700    99795409.501 7
  25430671.168        2396.537          44.600


 115641320.094 8  90110212.762 7  22005817.875                    22005823.508
      2559.603        1994.497          49.800          46.700    86355626.119 8
  22005822.598        1911.391          48.500


 124892584.971 7  97318950.272 6  23766271.938                    23766276.570
     -3089.910       -2407.720          43.000          39.200



 120006528.459 7  93511665.47944  22836488.727                    22836492.262
      2980.299        2322.304          42.900          29.600



 136095842.84314                  25898182.164
      2956.187                          28.600



 134871794.389 6 105094980.018 5  25665263.883
     -2850.486       -2221.168          37.000          33.100



 107435004.853 8  83715614.38346  20444199.453                    20444201.918
       926.011         721.566          48.400          40.500



 130802481.353 6 101924029.830 6  24890893.648                    24890900.875
     -3561.681       -2775.319          38.800          36.600



 18  6 25 13 13  0.0000000  0 10G26G21G10G08G27G29G20G05G16G31
 107713010.987 8  83932309.488 8  20497114.711                    20497120.938
     -1086.085        -846.298          49.600          50.100    80435129.773 9
  20497119.949        -811.037          54.100


 111239407.181 8  86680051.54846  21168136.930                    21168138.992
      -875.299        -682.049          49.300          39.900



 130089524.909 6 101368573.890 6  24755225.734                    24755235.207
      3552.007        2767.791          41.000          38.700    97144888.462 7
  24755234.684        2652.464          43.700


 133542806.317 5 104059334.449 5  25412343.641                    25412351.449
      3208.427        2500.063          34.800          32.900    99723523.280 6
  25412352.633        2395.893          41.500


 115564644.864 8  90050465.839 7  21991226.844                    21991233.027
      2552.340        1988.842          50.200          47.400    86298368.661 8
  21991232.586        1905.967          49.700


 124985323.946 7  97391214.347 6  23783919.195                    23783924.500
     -3092.558       -2409.779          44.100          38.300



 119917264.036 7  93442108.83844  22819501.797                    22819505.855
      2970.989        2315.052          42.700          29.900



 134957482.20915                  25681570.969
     -2861.845                          30.500



 107407482.068 7  83694168.06146  20438961.586                    20438964.164
       909.381         708.607          47.600          40.600



 130909320.853 6 102007281.273 6  24911223.742                    24911231.711
     -3560.942       -2774.761          38.200          37.000



 18  6 25 13 13 30.0000000  0 10G26G21G10G08G27G29G20G07G16G31
 107745859.918 8  83957906.056 8  20503365.719                    20503371.664
     -1103.217        -859.653          50.500          50.200    80459659.809 9
  20503370.676        -823.834          54.300


 111265872.440 8  86700673.83346  21173172.750                    21173175.754
      -888.558        -692.380          49.100          40.200



 129982960.740 6 101285537.007 6  24734946.836                    24734956.445
      3552.237        2767.971          39.500          38.800    97065311.499 7
  24734956.621        2652.640          43.800


 133446565.882 5 103984341.930 5  25394030.117                    25394037.992
      3207.576        2499.410          35.900          33.700    99651655.440 6
  25394039.469        2395.276          41.300


 115488187.814 8  89990888.953 7  21976677.719                    21976683.473
      2545.056        1983.159          49.500          47.700    86241274.148 8
  21976682.914        1900.522          49.500


 125078142.276 7  97463540.257 6  23801582.563                    23801586.402
     -3095.203       -2411.839          45.100          38.800



 119828280.668 7  93372771.18345  22802569.227                    22802572.656
      2961.558        2307.702          43.800          30.200



 135919031.572 6 105910979.876 6  25864536.203                    25864543.270
      2937.686        2289.115          36.800          36.100



 107380458.534 7  83673110.77046  20433819.508                    20433821.863
       892.733         695.640          47.100          40.000



 131016137.538 6 102090514.921 6  24931550.734                    24931558.375
     -3560.156       -2774.137          38.300          37.200



 18  6 25 13 14  0.0000000  0 11G26G21G10G08G27G29G20G07G05G16G31
 107779222.482 8  83983902.838 8  20509714.430                    20509720.941
     -1120.394        -873.038          49.700          50.600    80484573.385 9
  20509719.660        -836.653          54.000


 111292734.633 7  86721605.41046  21178284.680                    21178287.063
      -901.830        -702.724          47.900          40.200



 129876390.988 6 101202495.791 6  24714667.625                    24714677.074
      3552.348        2768.062          40.700          39.200    96985730.352 7
  24714676.961        2652.722          43.600


 133350351.283 6 103909369.534 5  25375721.414                    25375727.941
      3206.672        2498.716          36.100          33.300    99579806.957 6
  25375730.004        2394.582          41.800


 115411950.120 8  89931482.987 7  21962170.031                    21962176.105
      2537.656        1977.393          49.100          47.700    86184343.441 8
  21962175.781        1894.999          49.900


 125171039.397 7  97535927.562 6  23819259.430                    23819265.270
     -3097.873       -2413.932          43.400          39.500



 119739581.580 7  93303655.05445  22785689.844                    22785693.367
      2951.993        2300.255          43.500          30.900



 135831045.878 5 105842419.606 6  25847793.500                    25847799.961
      2928.229        2281.717          35.700          36.600



 135129907.319 5                  25714371.234
     -2883.529                          34.700



 107353936.393 7  83652444.17146  20428772.141                    20428774.820
       875.950         682.559          46.800          40.600



 131122929.034 6 102173728.914 6  24951873.266                    24951879.875
     -3559.314       -2773.468          40.300          37.900



 18  6 25 13 14 30.0000000  0 11G26G21G10G08G27G29G20G07G05G16G31
 107813097.906 8  84010299.255 8  20516160.797                    20516167.445
     -1137.464        -886.336          50.500          49.800    80509869.952 9
  20516166.164        -849.408          54.100


 111319992.131 8  86742845.03546  21183471.891                    21183474.160
      -914.944        -712.945          49.000          40.100



 129769818.022 6 101119452.056 6  24694387.398                    24694396.680
      3552.392        2768.093          40.400          38.700    96906146.815 7
  24694396.684        2652.751          44.200


 133254162.005 5 103834416.865 5  25357416.180                    25357422.797
      3205.884        2498.084          34.800          32.900    99507977.290 6
  25357426.379        2393.998          40.500


 115335932.139 8  89872248.212 8  21947704.094                    21947710.258
      2530.380        1971.721          48.400          48.200    86127576.786 8
  21947709.875        1889.565          50.200


 125264014.131 7  97608375.324 6  23836951.859                    23836958.418
     -3100.444       -2415.929          43.000          39.400



 119651169.497 7  93234762.56545  22768866.484                    22768869.711
      2942.421        2292.798          43.900          30.700



 135743343.740 5 105774080.343 5  25831103.305                    25831109.727
      2918.820        2274.387          33.900          30.200



 135216582.394 5 105363596.103 4  25730864.492
     -2894.474       -2255.417          34.000          24.300



 107327915.957 8  83632168.51346  20423820.930                    20423822.965
       859.254         669.546          48.000          40.800



 131229692.174 6 102256920.834 6  24972190.273                    24972196.348
     -3558.309       -2772.709          39.800          38.900



 18  6 25 13 15  0.0000000  0 10G26G21G10G08G27G29G20G07G16G31
 107847486.437 8  84037095.504 8  20522704.750                    20522711.234
     -1154.519        -899.627          50.400          50.200    80535549.687 9
  20522710.191        -862.142          54.600


 111347644.237 8  86764392.12646  21188733.406                    21188735.754
      -928.065        -723.166          48.000          40.800



 129663245.281 6 101036408.490 6  24674107.172                    24674116.211
      3552.415        2768.114          40.900          37.900    96826563.422 7
  24674115.453        2652.778          43.100


 133158000.303 6 103759485.768 5  25339117.102                    25339124.969
      3204.928        2497.347          37.600          34.200    99436168.291 7
  25339126.563        2393.284          43.600


 115260135.419 8  89813185.860 7  21933280.438                    21933286.480
      2523.005        1965.975          49.300          47.300    86070975.376 8
  21933286.043        1884.059          50.500


 125357066.319 7  97680883.486 6  23854659.094                    23854664.535
     -3102.959       -2417.886          42.300          39.100



 119563047.836 7  93166096.36845  22752096.688                    22752101.316
      2932.705        2285.219          43.200          30.600



 135655928.316 6 105705964.350 6  25814469.797                    25814476.109
      2909.237        2266.952          39.000          36.800



 107302399.332 7  83612285.43046  20418965.305                    20418967.570
       842.453         656.456          47.200          40.900



 131336424.852 6 102340088.958 6  24992500.070                    24992506.605
     -3557.247       -2771.867          40.800          37.700



 18  6 25 13 15 30.0000000  0 10G26G21G10G08G27G29G20G07G16G31
 107882387.401 8  84064291.047 8  20529345.953                    20529352.551
     -1171.594        -912.929          50.600          49.800    80561612.073 9
  20529351.625        -874.893          54.500


 111375689.708 8  86786245.74546  21194070.633                    21194072.754
      -941.177        -733.384          48.800          40.200



 129556675.128 6 100953366.922 6  24653827.922                    24653835.949
      3552.304        2768.029          41.300          38.400    96746981.975 7
  24653836.188        2652.691          43.800


 133061865.185 6 103684575.257 5  25320823.648                    25320830.555
      3204.035        2496.648          37.500          33.100    99364379.170 6
  25320831.680        2392.624          39.600


 115184560.550 8  89754296.385 7  21918898.883                    21918904.809
      2515.595        1960.208          49.100          47.100    86014539.618 8
  21918904.660        1878.535          50.900


 125450194.970 7  97753451.190 6  23872381.266                    23872386.301
     -3105.510       -2419.876          42.000          38.100



 119475219.617 7  93097658.84645  22735383.258                    22735387.641
      2922.887        2277.575          43.700          31.900



 135568800.796 6 105638072.863 6  25797890.047                    25797895.082
      2899.576        2259.404          41.400          37.200



 107277387.722 7  83592795.86146  20414205.664                    20414207.992
       825.571         643.304          47.500          40.200



 131443124.911 6 102423231.681 6  25012803.492                    25012811.848
     -3556.106       -2770.991          40.300          37.900



 18  6 25 13 16  0.0000000  0 10G26G21G10G08G27G29G20G07G16G31
 107917799.932 8  84091885.207 8  20536085.078                    20536091.246
     -1188.644        -926.215          50.300          49.800    80588056.481 9
  20536090.613        -887.624          54.600


 111404126.551 8  86808404.32146  21199482.109                    21199484.230
      -954.180        -743.518          48.300          40.300



 129450109.977 6 100870329.314 6  24633549.063                    24633557.613
      3552.046        2767.814          41.800          38.700    96667404.267 7
  24633557.559        2652.495          43.800


 132965757.659 6 103609686.289 6  25302535.367                    25302542.266
      3203.135        2495.953          38.300          36.300    99292610.524 6
  25302542.918        2391.941          40.600


 115109207.939 8  89695580.077 7  21904559.711                    21904566.070
      2508.170        1954.418          48.300          47.300    85958269.840 8
  21904566.156        1872.986          50.700


 125543399.098 7  97826077.706 6  23890117.734                    23890122.770
     -3108.028       -2421.836          42.600          39.100



 119387686.673 7  93029451.40345  22718726.242                    22718731.090
      2912.991        2269.862          43.700          31.400



 135481963.898 6 105570407.705 5  25781364.953                    25781370.820
      2889.808        2251.802          37.100          33.000



 107252882.059 8  83573700.53646  20409542.625                    20409544.625
       808.698         630.158          48.200          40.900



 131549788.997 6 102506346.387 6  25033102.063                    25033109.332
     -3554.867       -2770.023          40.000          39.100



 18  6 25 13 16 30.0000000  0 10G26G21G10G08G27G29G20G07G16G31
 107953723.665 8  84119877.712 8  20542921.070                    20542927.539
     -1205.682        -939.494          50.900          50.900    80614882.623 9
  20542926.730        -900.345          55.000


 111432953.296 8  86830866.72146  21204967.352                    21204969.887
      -967.173        -753.645          48.300          40.400



 129343552.743 6 100787297.812 6  24613271.625                    24613279.828
      3551.763        2767.602          40.800          38.100    96587832.470 7
  24613279.828        2652.282          43.800


 132869678.203 6 103534819.252 5  25284251.977                    25284259.195
      3202.177        2495.208          39.000          34.900    99220862.951 6
  25284260.027        2391.246          41.300


 115034078.542 8  89637037.714 7  21890263.453                    21890269.613
      2500.698        1948.596          48.400          47.900    85902166.755 8
  21890269.699        1867.405          50.900


 125636677.985 6  97898762.513 6  23907867.586                    23907873.152
     -3110.503       -2423.768          41.800          39.200



 119300452.277 7  92961476.59845  22702126.211                    22702130.434
      2902.981        2262.063          44.200          31.000



 135395420.303 6 105502971.146 5  25764896.961                    25764902.344
      2880.051        2244.191          38.500          33.600



 107228883.875 8  83555000.66446  20404975.781                    20404977.855
       791.743         616.939          48.000          40.900



 131656414.831 6 102589431.268 6  25053392.906                    25053399.844
     -3553.546       -2768.992          41.200          40.500



 18  6 25 13 17  0.0000000  0 10G26G21G10G08G27G29G20G07G16G31
 107990158.190 8  84148268.240 8  20549854.828                    20549860.699
     -1222.720        -952.768          51.400          50.100    80642090.209 9
  20549860.121        -913.075          55.000


 111462168.532 7  86853631.83246  21210526.945                    21210529.320
      -980.090        -763.702          47.700          40.700



 129237006.251 7 100704274.711 6  24592996.969                    24593004.969
      3551.360        2767.295          42.600          38.700    96508268.682 7
  24593005.324        2651.987          43.700


 132773627.696 6 103459974.709 6  25265974.523                    25265981.324
      3201.158        2494.422          39.500          36.100    99149136.954 6
  25265981.219        2390.477          41.100


 114959173.261 8  89578669.987 7  21876009.422                    21876014.895
      2493.218        1942.771          48.800          46.900    85846231.025 8
  21876015.039        1861.818          51.200


 125730030.733 7  97971504.817 6  23925632.102                    23925638.223
     -3112.942       -2425.669          42.800          38.200



 119213519.504 7  92893736.82145  22685582.930                    22685587.367
      2892.859        2254.174          44.200          30.400



 135309172.220 6 105435764.839 5  25748485.313                    25748489.410
      2870.107        2236.459          39.000          34.400



 107205394.182 8  83536697.00046  20400505.453                    20400508.008
       774.774         603.718          49.000          41.300



 131762999.724 6 102672484.296 6  25073674.984                    25073682.895
     -3552.191       -2767.936          40.000          40.300



 18  6 25 13 17 30.0000000  0 10G26G21G10G08G27G29G20G07G16G31
 108027103.012 8  84177056.407 8  20556884.781                    20556891.277
     -1239.705        -966.004          51.700          50.000    80669678.864 9
  20556890.465        -925.752          55.000


 111491771.264 8  86876698.90046  21216160.320                    21216162.590
      -992.971        -773.748          49.300          40.300



 129130473.111 6 100621261.968 6  24572724.031                    24572731.758
      3550.879        2766.919          41.400          38.700    96428714.851 7
  24572731.523        2651.626          43.900


 132677606.309 6 103385152.934 6  25247701.234                    25247709.551
      3200.248        2493.707          37.900          36.500    99077432.746 6
  25247708.508        2389.801          38.600


 114884492.994 8  89520477.587 7  21861797.305                    21861803.563
      2485.727        1936.935          48.500          47.100    85790463.307 8
  21861803.711        1856.228          51.200


 125823456.856 7  98044304.357 6  23943410.719                    23943416.367
     -3115.357       -2427.554          42.600          39.200



 119126891.152 7  92826234.25945  22669098.336                    22669102.758
      2882.683        2246.246          45.000          30.100



 135223222.431 5 105368790.927 5  25732127.711                    25732133.324
      2860.117        2228.669          32.800          34.400



 107182414.273 7  83518790.57446  20396132.797                    20396135.211
       757.778         590.473          47.900          41.000



 131869541.259 6 102755503.562 6  25093949.117                    25093957.078
     -3550.638       -2766.737          40.500          39.700



 18  6 25 13 18  0.0000000  0 10G26G21G10G08G27G29G20G07G16G31
 108064557.742 8  84206241.896 8  20564012.055                    20564019.094
     -1256.710        -979.250          50.500          50.300    80697648.293 9
  20564018.164        -938.451          55.100


 111521759.828 8  86900066.61146  21221866.523                    21221869.250
     -1005.796        -783.738          48.000          39.800



 129023956.343 6 100538262.011 6  24552453.875                    24552462.328
      3550.282        2766.446          40.900          38.700    96349173.228 7
  24552462.094        2651.175          42.700


 132581614.954 6 103310354.522 6  25229435.367                    25229442.980
      3199.231        2492.910          37.900          36.400    99005750.960 6
  25229442.461        2389.038          41.800


 114810038.622 8  89462461.207 7  21847629.508                    21847635.980
      2478.174        1931.049          49.300          47.300    85734864.292 8
  21847635.773        1850.583          51.600


 125916955.598 6  98117160.451 6  23961202.852                    23961209.430
     -3117.788       -2429.441          41.500          39.200



 119040570.264 7  92758971.27045  22652671.797                    22652676.164
      2872.401        2238.237          44.200          31.500



 135137573.736 6 105302051.820 6  25715830.539                    25715835.234
      2850.100        2220.855          38.300          36.900



 107159945.597 8  83501282.51746  20391857.172                    20391860.020
       740.729         577.190          49.200          40.800



 131976036.968 6 102838487.062 6  25114214.633                    25114221.836
     -3549.112       -2765.535          39.300          37.600



 18  6 25 13 18 30.0000000  0 10G26G21G10G08G27G29G20G07G16G31
 108102521.717 8  84235824.206 8  20571236.445                    20571243.207
     -1273.650        -992.453          51.000          50.200    80725997.991 9
  20571242.336        -951.098          54.900


 111552132.858 8  86923733.90846  21227646.539                    21227649.105
     -1018.593        -793.716          48.300          39.900



 128917458.541 6 100455276.805 6  24532187.922                    24532196.758
      3549.608        2765.930          41.400          39.400    96269645.785 7
  24532196.762        2650.676          43.700


 132485654.321 6 103235580.022 6  25211174.867                    25211182.082
      3198.227        2492.123          39.200          37.600    98934092.056 6
  25211181.504        2388.288          41.200


 114735810.894 8  89404621.446 7  21833504.820                    21833510.723
      2470.616        1925.155          49.800          47.000    85679434.528 8
  21833510.867        1844.940          51.800


 126010526.182 7  98190072.557 6  23979009.461                    23979015.086
     -3120.167       -2431.305          43.200          39.900



 118954559.558 7  92691949.97145  22636304.969                    22636309.418
      2862.020        2230.147          44.500          31.100



 135052228.399 6 105235548.949 6  25699590.469                    25699594.125
      2839.941        2212.941          40.200          37.000



 107137989.347 8  83484173.75146  20387678.656                    20387681.664
       723.627         563.861          49.000          40.800



 132082484.403 6 102921432.968 6  25134470.078                    25134478.590
     -3547.471       -2764.253          38.600          37.700



 18  6 25 13 19  0.0000000  0 10G26G21G10G08G27G29G20G07G16G31
 108140994.376 8  84265802.890 8  20578557.438                    20578564.242
     -1290.627       -1005.688          50.100          50.000    80754727.559 9
  20578563.371        -963.782          54.900


 111582889.139 8  86947699.83446  21233499.047                    21233502.023
     -1031.367        -803.659          48.400          40.600



 128810982.543 6 100372308.642 6  24511926.945                    24511934.719
      3548.800        2765.295          41.400          38.500    96190134.635 7
  24511934.547        2650.069          43.700


 132389724.449 6 103160829.589 6  25192919.883                    25192927.008
      3197.141        2491.272          39.200          37.900    98862456.189 7
  25192927.426        2387.477          42.600


 114661810.635 8  89346958.936 7  21819423.016                    21819428.852
      2462.994        1919.214          49.100          46.600    85624174.626 8
  21819429.059        1839.251          51.500


 126104168.105 7  98263040.194 6  23996828.586                    23996834.594
     -3122.531       -2433.133          43.200          39.200



 118868861.803 7  92625172.55245  22619997.117                    22620001.199
      2851.516        2221.961          45.000          31.500



 134967188.209 6 105169283.904 4  25683407.586                    25683411.414
      2829.737        2204.982          37.900          29.600



 107116546.731 8  83467465.21846  20383598.922                    20383601.160
       706.456         550.483          48.400          41.100



 132188880.816 6 103004339.094 6  25154718.641                    25154724.957
     -3545.744       -2762.920          37.300          37.400



 18  6 25 13 19 30.0000000  0 10G26G21G10G08G27G29G20G07G16G31
 108179975.116 8  84296177.483 8  20585975.047                    20585982.004
     -1307.531       -1018.851          51.600          50.100    80783836.542 9
  20585981.137        -976.406          54.600


 111614026.964 7  86971963.07646  21239424.164                    21239426.863
     -1044.064        -813.550          47.000          40.500



 128704531.042 6 100289359.548 6  24491669.813                    24491678.074
      3547.963        2764.639          41.800          40.200    96110641.794 7
  24491677.258        2649.444          43.400


 132293826.344 6 103086103.784 6  25174670.016                    25174677.559
      3196.082        2490.453          38.600          37.200    98790844.015 7
  25174678.621        2386.684          43.200


 114588038.675 8  89289474.311 7  21805384.688                    21805390.781
      2455.406        1913.304          49.900          46.800    85569085.205 8
  21805390.984        1833.586          51.500


 126197880.034 7  98336062.438 6  24014661.445                    24014667.578
     -3124.854       -2434.950          42.500          39.400



 118783480.218 7  92558641.49445  22603749.602                    22603753.676
      2840.928        2213.702          44.800          31.500



 134882456.600 6 105103259.260 5  25667284.047                    25667286.863
      2819.373        2196.916          37.500          30.400



 107095618.806 7  83451157.74346  20379615.969                    20379618.656
       689.326         537.134          47.900          41.000



 132295223.559 6 103087203.406 5  25174954.703                    25174961.313
     -3543.866       -2761.451          39.900          35.800



 18  6 25 13 20  0.0000000  0 10G26G21G10G08G27G29G20G07G16G31
 108219463.553 8  84326947.679 8  20593489.414                    20593496.371
     -1324.454       -1032.045          50.800          50.000    80813324.645 9
  20593495.500        -989.039          54.700


 111645545.273 8  86996522.80446  21245422.617                    21245424.672
     -1056.740        -823.436          48.000          40.800



 128598106.993 6 100206431.832 6  24471417.141                    24471425.566
      3546.999        2763.890          40.600          39.000    96031169.421 7
  24471424.984        2648.732          43.300


 132197960.519 6 103011403.237 6  25156428.984                    25156436.563
      3195.001        2489.613          40.400          36.800    98719256.017 7
  25156436.219        2385.873          43.600


 114514496.090 8  89232168.419 7  21791390.273                    21791396.008
      2447.699        1907.298          50.700          46.800    85514167.069 8
  21791396.273        1827.825          51.900


 126291661.458 7  98409138.809 6  24032507.953                    24032513.836
     -3127.155       -2436.744          43.800          38.800



 118698417.551 7  92492358.94145  22587562.945                    22587566.742
      2830.240        2205.377          44.700          30.400



 134798035.900 6 105037476.894 5  25651218.391                    25651221.930
      2808.979        2188.817          40.100          35.400



 107075207.122 8  83435252.53146  20375731.508                    20375734.348
       672.068         523.686          48.500          40.700



 132401510.556 6 103170024.198 6  25195180.766                    25195187.340
     -3541.926       -2759.946          38.600          36.800



 18  6 25 13 20 30.0000000  0 10G26G21G10G08G27G29G20G07G16G31
 108259458.864 8  84358112.836 8  20601100.531                    20601107.152
     -1341.329       -1045.193          51.900          50.200    80843191.250 9
  20601106.281       -1001.642          54.600


 111677442.433 7  87021377.74046  21251491.922                    21251494.926
     -1069.315        -833.231          47.800          40.600



 128491713.022 6 100123527.576 6  24451171.563                    24451179.883
      3545.959        2763.081          40.900          39.700    95951719.527 7
  24451179.242        2647.954          44.200


 132102127.736 6 102936728.384 6  25138191.750                    25138199.281
      3193.903        2488.756          40.200          37.900    98647692.593 6
  25138198.645        2385.062          41.900


 114441183.440 8  89175041.713 7  21777439.219                    21777444.508
      2440.062        1901.346          50.100          46.700    85459420.638 8
  21777444.711        1822.127          51.000


 126385511.874 7  98482268.931 6  24050367.000                    24050372.988
     -3129.464       -2438.536          43.800          39.400



 118613676.708 7  92426327.15044  22571437.094                    22571440.738
      2819.490        2197.000          45.300          29.900



 134713928.002 6 104971938.252 5  25635213.836                    25635217.336
      2798.531        2180.683          40.200          33.700



 107055312.245 8  83419750.03146  20371945.836                    20371948.859
       654.829         510.256          49.100          41.700



 132507738.721 6 103252799.206 6  25215395.188                    25215402.227
     -3539.995       -2758.431          38.200          37.600



 18  6 25 13 21  0.0000000  0 10G26G21G10G08G27G29G20G07G16G31
 108299960.431 8  84389672.483 8  20608808.180                    20608814.539
     -1358.208       -1058.343          51.100          49.900    80873435.905 9
  20608813.727       -1014.245          54.500


 111709716.777 7  87046526.58246  21257633.461                    21257636.500
     -1081.859        -843.013          47.600          40.500



 128385351.853 6 100040648.831 6  24430931.094                    24430938.816
      3544.818        2762.203          40.100          38.900    95872294.099 7
  24430938.699        2647.104          43.600


 132006328.611 6 102862079.824 6  25119962.109                    25119968.617
      3192.766        2487.871          40.300          37.600    98576154.389 7
  25119969.684        2384.208          43.300


 114368101.555 8  89118094.805 7  21763532.383                    21763537.430
      2432.357        1895.344          50.500          46.200    85404846.531 8
  21763537.750        1816.373          51.600


 126479430.506 7  98555452.223 6  24068239.133                    24068245.652
     -3131.665       -2440.263          42.800          39.500



 118529260.384 7  92360548.21645  22555373.367                    22555376.457
      2808.625        2188.544          45.800          31.000



 134630135.557 6 104906645.466 5  25619268.781                    25619272.410
      2788.001        2172.473          39.900          32.300



 107035935.815 8  83404651.51946  20368258.563                    20368261.168
       637.548         496.786          48.700          40.600



 132613906.069 6 103335526.796 6  25235598.219                    25235605.648
     -3537.919       -2756.823          37.300          36.700



 18  6 25 13 21 30.0000000  0 10G26G21G10G08G27G29G20G07G16G31
 108340967.798 8  84421626.254 8  20616611.016                    20616617.582
     -1375.050       -1071.465          51.700          50.700    80904058.272 9
  20616616.832       -1026.825          54.900


 111742367.139 8  87071968.41646  21263846.656                    21263849.434
     -1094.378        -852.760          48.000          40.100



 128279026.477 6  99957798.007 6  24410698.766                    24410706.590
      3543.565        2761.224          41.000          40.200    95792895.413 7
  24410705.711        2646.164          43.800


 131910563.742 6 102787457.910 5  25101738.281                    25101745.473
      3191.612        2486.968          40.900          35.900    98504641.731 7
  25101746.418        2383.349          44.000


 114295251.520 8  89061328.559 7  21749669.188                    21749674.316
      2424.590        1889.291          49.800          46.200    85350445.557 8
  21749674.816        1810.572          51.000


 126573416.720 7  98628688.184 6  24086124.875                    24086129.969
     -3133.945       -2442.036          44.300          39.600



 118445171.504 7  92295024.44445  22539371.313                    22539374.789
      2797.657        2179.994          45.100          30.100



 134546661.443 6 104841600.693 5  25603383.555                    25603387.629
      2777.346        2164.159          38.800          35.500



 107017079.067 8  83389957.94546  20364670.289                    20364673.102
       620.169         483.253          48.900          40.200



 132720010.346 6 103418205.271 6  25255789.039                    25255796.875
     -3535.758       -2755.113          37.100          37.000



 18  6 25 13 22  0.0000000  0 10G26G21G10G08G27G29G20G07G16G31
 108382480.195 8  84453973.566 8  20624510.906                    20624517.648
     -1391.915       -1084.613          51.300          50.100    80935057.766 9
  20624516.777       -1039.412          54.500


 111775391.876 7  87097701.97846  21270131.078                    21270133.762
     -1106.877        -862.496          47.300          40.500



 128172739.573 6  99874977.129 6  24390472.445                    24390480.773
      3542.233        2760.179          41.000          40.800    95713525.430 7
  24390480.016        2645.167          44.700


 131814833.399 6 102712862.819 6  25083520.750                    25083528.125
      3190.396        2486.019          40.200          37.900    98433154.877 7
  25083529.250        2382.435          43.200


 114222634.031 8  89004743.525 7  21735850.492                    21735855.727
      2416.792        1883.214          50.300          46.400    85296218.230 8
  21735855.641        1804.751          50.700


 126667469.595 7  98701976.082 6  24104022.508                    24104027.797
     -3136.183       -2443.779          43.700          38.400



 118361412.854 7  92229757.99745  22523433.984                    22523436.055
      2786.550        2171.335          46.600          31.400



 134463507.563 6 104776805.533 5  25587560.578                    25587564.484
      2766.530        2155.729          38.000          34.400



 106998742.682 8  83375669.86246  20361181.000                    20361183.523
       602.783         469.696          48.600          40.600



 132826048.393 6 103500832.181 6  25275967.047                    25275975.457
     -3533.585       -2753.440          37.700          37.000



 18  6 25 13 22 30.0000000  0 10G26G21G10G08G27G29G20G07G16G31
 108424497.069 8  84486713.961 8  20632506.367                    20632512.906
     -1408.689       -1097.680          52.700          49.900    80966433.984 9
  20632512.152       -1051.943          54.700


 111808790.037 7  87123726.52846  21276486.594                    21276489.059
     -1119.264        -872.159          47.900          39.600



 128066494.121 7  99792188.586 6  24370254.531                    24370262.012
      3540.813        2759.071          42.400          39.800    95634186.421 7
  24370261.195        2644.111          44.300


 131719138.533 6 102638295.490 6  25065310.898                    25065318.754
      3189.216        2485.085          39.000          38.000    98361694.486 7
  25065319.172        2381.549          43.400


 114150250.032 8  88948340.428 7  21722076.156                    21722081.809
      2409.033        1877.165          50.400          46.800    85242165.272 8
  21722081.719        1798.954          51.200


 126761588.246 7  98775315.232 6  24121932.445                    24121938.430
     -3138.351       -2445.468          44.500          39.400



 118277987.525 7  92164751.28345  22507557.344                    22507561.082
      2775.423        2162.665          45.500          31.600



 134380677.022 6 104712262.275 6  25571798.336                    25571802.711
      2755.779        2147.350          38.500          37.200



 106980928.178 8  83361788.42946  20357790.836                    20357793.305
       585.360         456.121          48.800          40.200



 132932018.181 6 103583405.887 6  25296132.734                    25296140.277
     -3531.239       -2751.611          36.400          36.100



 18  6 25 13 23  0.0000000  0 10G26G21G10G08G27G29G20G07G16G31
 108467017.585 8  84519846.811 8  20640597.578                    20640604.578
     -1425.478       -1110.760          51.600          50.200    80998186.283 9
  20640603.590       -1064.479          54.400


 111842559.352 8  87150040.28146  21282912.773                    21282915.238
     -1131.611        -881.779          48.800          40.200



 127960292.733 6  99709434.354 6  24350044.977                    24350053.773
      3539.282        2757.874          41.100          41.800    95554880.310 7
  24350052.840        2642.967          44.300


 131623479.585 6 102563756.098 6  25047107.945                    25047115.008
      3188.051        2484.203          41.400          37.000    98290260.887 7
  25047115.250        2380.688          44.700


 114078100.260 8  88892119.858 7  21708346.977                    21708352.355
      2401.183        1871.052          50.000          47.200    85188287.221 8
  21708352.211        1793.087          51.000


 126855772.297 7  98848705.347 6  24139855.055                    24139861.609
     -3140.516       -2447.159          43.900          38.500



 118194897.948 7  92100006.19345  22491746.125                    22491749.652
      2764.200        2153.921          45.700          31.900



 134298171.692 6 104647972.436 5  25556098.828                    25556103.391
      2744.904        2138.881          40.400          34.900



 106963636.749 8  83348314.58346  20354500.680                    20354503.457
       567.946         442.552          48.100          40.900



 133037917.154 6 103665924.342 6  25316285.422                    25316292.848
     -3528.809       -2749.716          38.400          37.100



 18  6 25 13 23 30.0000000  0 10G26G21G10G08G27G29G20G07G16G31
 108510041.136 8  84553371.637 8  20648784.469                    20648791.480
     -1442.189       -1123.785          52.100          49.800    81030314.235 9
  20648790.613       -1076.960          54.500


 111876699.038 8  87176642.63546  21289409.070                    21289411.813
     -1143.911        -891.357          48.300          39.400



 127854138.319 7  99626716.752 6  24329844.617                    24329852.215
      3537.700        2756.639          43.400          40.100    95475609.284 7
  24329851.688        2641.784          44.500


 131527857.376 6 102489245.332 6  25028911.859                    25028919.160
      3186.833        2483.248          40.500          38.400    98218854.784 7
  25028918.699        2379.780          43.000


 114006185.681 8  88836082.536 7  21694662.078                    21694667.238
      2393.385        1864.977          50.300          46.400    85134584.788 8
  21694667.324        1787.266          51.000


 126950020.950 7  98922145.787 6  24157790.438                    24157796.230
     -3142.649       -2448.814          43.900          38.500



 118112147.307 7  92035525.20445  22475999.336                    22476003.078
      2752.889        2145.106          45.900          31.500



 134215994.351 7 104583938.160 6  25540460.320                    25540466.191
      2733.956        2130.352          42.800          38.900



 106946868.956 8  83335248.76546  20351310.602                    20351312.410
       550.490         428.952          49.500          41.100



 133143742.744 6 103748385.640 6  25336422.664                    25336431.402
     -3526.294       -2747.750          36.900          36.900



 18  6 25 13 24  0.0000000  0 10G26G21G10G08G27G29G20G07G16G31
 108553566.882 8  84587287.783 8  20657067.508                    20657074.230
     -1458.959       -1136.845          51.900          50.100    81062817.208 9
  20657073.125       -1089.481          54.300


 111911207.287 7  87203532.18246  21295975.758                    21295978.379
     -1156.203        -900.937          47.200          40.000



 127748033.590 7  99544037.856 6  24309653.305                    24309661.426
      3535.994        2755.310          43.300          40.500    95396375.362 7
  24309660.605        2640.509          44.400


 131432272.418 6 102414763.605 6  25010721.461                    25010729.336
      3185.527        2482.230          39.600          37.300    98147476.465 7
  25010729.695        2378.796          43.800


 113934507.047 8  88780229.081 7  21681021.516                    21681027.109
      2385.474        1858.810          50.300          46.500    85081058.553 8
  21681027.434        1781.361          51.000


 127044333.542 7  98995636.056 6  24175737.938                    24175742.617
     -3144.779       -2450.472          45.300          39.100



 118029738.258 7  91971310.40645  22460317.398                    22460320.910
      2741.429        2136.177          46.000          31.500



 134134147.081 6 104520161.095 5  25524885.008                    25524890.980
      2722.893        2121.745          41.900          34.500



 106930626.052 8  83322591.96146  20348219.297                    20348221.598
       532.939         415.275          48.900          41.500



 133249492.309 6 103830787.655 6  25356547.063                    25356554.883
     -3523.720       -2745.741          38.000          36.900



 18  6 25 13 24 30.0000000  0 10G26G21G10G08G27G29G20G07G16G31
 108597594.375 8  84621594.913 8  20665445.508                    20665452.402
     -1475.656       -1149.863          51.900          50.200    81095694.865 9
  20665451.184       -1101.945          54.500


 111946082.993 8  87230708.06046  21302612.141                    21302615.113
     -1168.430        -910.467          48.000          39.900



 127641981.712 6  99461400.111 6  24289470.750                    24289480.004
      3534.201        2753.923          41.300          40.900    95317180.902 7
  24289479.828        2639.168          44.400


 131336725.566 6 102340311.577 6  24992539.305                    24992547.574
      3184.297        2481.260          40.700          39.200    98076126.629 7
  24992546.879        2377.879          43.300


 113863065.413 8  88724560.307 7  21667427.063                    21667432.082
      2377.557        1852.637          49.700          45.900    85027709.324 8
  21667432.465        1775.446          51.000


 127138709.323 7  99069175.583 6  24193696.352                    24193701.895
     -3146.865       -2452.098          44.800          37.700



 117947673.575 7  91907363.92845  22444700.063                    22444704.852
      2729.904        2127.199          45.500          31.400



 134052633.039 6 104456643.663 5  25509373.133                    25509379.840
      2711.752        2113.055          39.500          35.400



 106914909.352 8  83310345.17946  20345228.344                    20345231.070
       515.413         401.621          49.700          41.400



 133355163.753 6 103913128.844 6  25376654.789                    25376663.566
     -3521.138       -2743.764          36.800          36.800



 18  6 25 13 25  0.0000000  0 10G26G21G10G08G27G29G20G07G16G31
 108642122.799 8  84656292.360 8  20673919.070                    20673926.129
     -1492.304       -1162.832          51.400          50.600    81128946.596 9
  20673924.848       -1114.388          54.400


 111981324.359 8  87258168.86746  21309318.672                    21309321.094
     -1180.579        -919.935          48.400          40.000



 127535985.400 7  99378805.692 6  24269302.211                    24269309.301
      3532.276        2752.428          42.400          39.400    95238027.961 7
  24269308.660        2637.737          44.600


 131241217.434 6 102265889.712 6  24974365.664                    24974372.563
      3183.025        2480.277          40.000          37.900    98004805.667 7
  24974372.633        2376.935          43.700


 113791861.570 8  88669076.800 7  21653877.438                    21653882.633
      2369.650        1846.478          50.300          46.300    84974537.637 8
  21653882.898        1769.551          50.900


 127233147.732 7  99142763.885 6  24211667.516                    24211672.906
     -3148.907       -2453.689          45.000          37.400



 117865956.313 7  91843688.18045  22429149.211                    22429154.266
      2718.311        2118.161          44.700          30.800



 133971454.381 6 104393387.574 6  25493926.891                    25493931.559
      2700.552        2104.321          41.100          36.200



 106899719.800 8  83298509.15747  20342337.680                    20342340.355
       497.833         387.923          48.700          42.000



 133460754.971 6 103995407.490 5  25396749.109                    25396757.141
     -3518.310       -2741.542          38.500          34.000



 18  6 25 13 25 30.0000000  0 10G26G21G10G08G27G29G20G07G16G31
 108687151.579 8  84691379.714 8  20682487.883                    20682495.035
     -1508.983       -1175.831          51.300          50.700    81162571.965 9
  20682493.578       -1126.837          54.200


 112016930.240 8  87285913.70946  21316094.648                    21316097.336
     -1192.683        -929.358          48.800          39.900



 127430047.591 6  99296256.889 6  24249141.867                    24249150.020
      3530.327        2750.906          41.700          38.900    95158918.686 7
  24249149.555        2636.282          45.300


 131145748.703 6 102191498.538 6  24956198.266                    24956205.426
      3181.667        2479.224          40.000          37.900    97933514.157 7
  24956205.613        2375.923          43.800


 113720896.626 8  88613779.448 7  21640373.289                    21640378.266
      2361.667        1840.260          50.300          45.900    84921544.351 8
  21640378.059        1763.580          51.000


 127327648.183 6  99216400.532 6  24229649.813                    24229655.328
     -3150.996       -2455.315          41.900          38.300



 117784589.328 7  91780285.38845  22413667.008                    22413670.895
      2706.587        2109.033          45.400          30.900



 133890613.746 6 104330394.967 5  25478541.695                    25478547.617
      2689.282        2095.537          40.300          34.700



 106885059.059 8  83287085.20346  20339547.977                    20339550.969
       480.186         374.178          48.300          41.600



 133566263.043 6 104077621.349 5  25416827.242                    25416834.133
     -3515.578       -2739.401          37.600          33.300



 18  6 25 13 26  0.0000000  0 10G26G21G10G08G27G29G20G07G16G31
 108732679.627 8  84726856.104 8  20691151.391                    20691158.574
     -1525.633       -1188.808          50.300          50.600    81196570.161 9
  20691157.648       -1139.270          54.400


 112052899.009 8  87313941.32046  21322938.734                    21322941.922
     -1204.790        -938.796          49.100          40.300



 127324170.872 6  99213755.676 6  24228995.281                    24229001.777
      3528.220        2749.259          41.100          39.200    95079855.042 7
  24229002.129        2634.708          45.600


 131050319.889 6 102117138.484 6  24938038.727                    24938045.879
      3180.251        2478.121          39.200          38.400    97862252.459 7
  24938046.477        2374.862          43.300


 113650171.104 8  88558668.665 7  21626914.797                    21626920.152
      2353.631        1833.998          48.900          46.300    84868729.839 8
  21626919.773        1757.583          50.900


 127422209.858 7  99290084.878 6  24247645.000                    24247650.035
     -3153.041       -2456.919          44.100          38.600



 117703575.215 7  91717157.54545  22398249.758                    22398253.496
      2694.738        2099.795          45.200          30.700



 133810113.330 6 104267667.384 6  25463222.594                    25463229.133
      2677.816        2086.613          41.300          36.300



 106870927.305 7  83276073.44747  20336858.656                    20336861.906
       462.514         360.397          47.900          42.000



 133671685.612 6 104159768.514 5  25436889.398                    25436896.680
     -3512.615       -2737.104          39.000          33.600



 18  6 25 13 26 30.0000000  0 10G26G21G10G08G27G29G20G07G16G31
 108778706.169 8  84762720.919 8  20699910.102                    20699917.410
     -1542.276       -1201.775          51.000          50.500    81230940.615 9
  20699916.246       -1151.697          54.400


 112089229.113 8  87342250.49346  21329852.750                    21329855.266
     -1216.849        -948.194          48.600          40.300



 127218358.196 6  99131304.305 6  24208859.828                    24208865.848
      3525.999        2747.527          40.900          39.700    95000839.211 7
  24208865.438        2633.047          44.100


 130954931.643 6 102042810.035 6  24919885.898                    24919894.117
      3178.925        2477.069          38.800          38.600    97791021.007 7
  24919894.301        2373.868          44.700


 113579685.917 8  88503745.165 7  21613501.906                    21613507.172
      2345.609        1827.750          48.700          47.300    84816094.823 8
  21613506.789        1751.593          51.100


 127516831.711 7  99363816.139 6  24265651.578                    24265656.711
     -3155.072       -2458.497          44.200          37.300



 117622916.881 7  91654306.94545  22382901.328                    22382905.023
      2682.808        2090.502          45.000          30.500



 133729955.584 6 104205206.833 5  25447969.281                    25447975.621
      2666.346        2077.680          41.800          35.500



 106857325.608 7  83265474.71946  20334270.445                    20334273.246
       444.800         346.602          47.900          41.100



 133777020.347 6 104241847.196 6  25456933.039                    25456941.094
     -3509.750       -2734.852          39.500          36.000



 18  6 25 13 27  0.0000000  0 10G26G21G10G08G27G29G20G07G16G31
 108825230.528 8  84798973.654 8  20708763.594                    20708770.910
     -1558.847       -1214.678          51.000          50.900    81265682.814 9
  20708769.750       -1164.073          54.600


 112125919.079 7  87370840.08046  21336834.344                    21336836.926
     -1228.807        -957.514          47.800          40.500



 127112612.404 6  99048905.124 6  24188734.859                    24188743.746
      3523.758        2745.784          39.000          40.100    94921873.311 7
  24188743.516        2631.381          45.400


 130859584.519 6 101968513.608 6  24901742.500                    24901749.613
      3177.577        2476.030          39.900          37.500    97719820.312 7
  24901750.738        2372.861          44.100


 113509442.061 8  88449009.716 7  21600134.938                    21600140.133
      2337.538        1821.456          49.200          47.100    84763640.013 8
  21600140.570        1745.558          51.600


 127611513.431 7  99437594.051 6  24283668.563                    24283673.328
     -3157.026       -2460.027          44.000          36.900



 117542617.013 7  91591735.66145  22367620.508                    22367623.871
      2670.843        2081.176          45.000          31.200



 133650142.773 6 104143015.075 5  25432780.852                    25432787.484
      2654.825        2068.685          40.600          35.000



 106844255.488 7  83255290.21246  20331782.898                    20331785.992
       427.081         332.791          47.900          41.300



 133882264.337 6 104323855.313 5  25476960.719                    25476968.543
     -3506.704       -2732.483          39.900          34.600



 18  6 25 13 27 30.0000000  0 10G26G21G10G08G27G29G20G07G16G31
 108872251.804 8  84835613.609 8  20717711.352                    20717718.367
     -1575.357       -1227.550          50.200          50.100    81300796.093 9
  20717717.613       -1176.401          54.500


 112162967.443 8  87399708.93046  21343884.148                    21343887.285
     -1240.713        -966.794          48.700          40.200



 127006936.377 6  98966560.265 6  24168626.477                    24168634.520
      3521.383        2743.931          40.800          41.000    94842959.509 7
  24168634.055        2629.600          45.900


 130764279.071 6 101894249.723 6  24883606.852                    24883613.969
      3176.230        2474.979          40.400          37.700    97648650.735 7
  24883614.387        2371.854          44.100


 113439440.276 8  88394462.901 7  21586813.797                    21586818.969
      2329.501        1815.192          48.100          47.300    84711365.982 8
  21586818.820        1739.563          51.700


 127706254.389 7  99511418.111 6  24301697.234                    24301701.781
     -3158.983       -2461.552          43.500          36.600



 117462678.298 7  91529445.77645  22352408.383                    22352412.777
      2658.757        2071.753          45.700          30.700



 133570677.323 6 104081093.929 5  25417659.461                    25417665.418
      2643.176        2059.622          38.900          33.600



 106831717.421 7  83245520.29146  20329397.000                    20329399.707
       409.344         318.975          46.800          40.900



 133987416.037 6 104405791.397 6  25496971.102                    25496978.438
     -3503.534       -2730.032          38.100          37.100



 18  6 25 13 28  0.0000000  0 10G26G21G10G08G27G29G20G07G16G31
 108919769.117 8  84872640.054 8  20726753.875                    20726760.621
     -1591.914       -1240.454          51.500          50.200    81336279.763 9
  20726759.695       -1188.767          54.500


 112200372.674 8  87428855.85646  21351002.000                    21351005.047
     -1252.606        -976.054          48.100          39.600



 126901332.740 6  98884271.812 6  24148530.891                    24148538.629
      3518.900        2741.992          40.800          40.000    94764099.788 7
  24148538.281        2627.735          45.000


 130669016.179 6 101820018.944 6  24865478.406                    24865486.230
      3174.735        2473.816          40.800          38.800    97577512.936 7
  24865485.711        2370.745          43.900


 113369681.432 8  88340105.389 7  21573538.805                    21573544.195
      2321.341        1808.831          48.200          46.900    84659273.371 8
  21573544.461        1733.472          51.600


 127801053.824 7  99585287.734 6  24319736.898                    24319741.883
     -3160.935       -2463.063          43.900          37.300



 117383103.672 7  91467439.58845  22337266.805                    22337269.969
      2646.580        2062.277          46.000          32.000



 133491561.783 6 104019445.430 5  25402603.656                    25402609.504
      2631.527        2050.537          39.200          33.600



 106819712.437 7  83236165.76946  20327112.539                    20327115.262
       391.549         305.101          47.100          41.100



 134092472.506 6 104487653.401 5  25516962.805                    25516970.266
     -3500.374       -2727.546          38.300          34.900



 18  6 25 13 28 30.0000000  0 10G26G21G10G08G27G29G20G07G16G31
 108967781.783 8  84910052.494 8  20735890.711                    20735896.871
     -1608.378       -1253.273          51.600          49.600    81372133.354 9
  20735896.004       -1201.060          54.300


 112238133.367 7  87458279.76246  21358187.813                    21358190.324
     -1264.406        -985.247          47.900          40.400



 126795804.731 6  98802042.301 6  24128449.313                    24128456.746
      3516.352        2740.012          41.000          38.700    94685296.519 7
  24128457.277        2625.843          46.300


 130573796.591 6 101745821.897 6  24847359.047                    24847366.074
      3173.273        2472.698          40.900          38.100    97506407.444 7
  24847366.141        2369.654          44.500


 113300166.591 8  88285937.997 7  21560311.250                    21560315.680
      2313.219        1802.505          48.500          46.500    84607362.960 8
  21560316.234        1727.404          51.800


 127895910.832 7  99659202.226 6  24337787.500                    24337792.270
     -3162.826       -2464.542          43.100          37.000



 117303895.973 7  91405719.34145  22322193.484                    22322196.625
      2634.331        2052.726          44.900          32.400



 133412798.645 6 103958071.602 5  25387616.047                    25387620.496
      2619.724        2041.350          40.400          32.300



 106808241.802 7  83227227.61246  20324929.695                    20324932.570
       373.728         291.222          46.600          41.200



 134197431.615 6 104569439.451 5  25536935.438                    25536942.695
     -3497.040       -2724.957          37.600          34.300



 18  6 25 13 29  0.0000000  0 10G26G21G10G08G27G29G20G07G16G31
 109016288.679 8  84947850.061 8  20745120.828                    20745127.098
     -1624.840       -1266.111          51.100          50.500    81408356.026 9
  20745126.578       -1213.357          54.000


 112276247.531 8  87487979.11246  21365440.828                    21365443.516
     -1276.166        -994.415          48.500          40.200



 126690354.952 7  98719873.735 6  24108383.367                    24108390.391
      3513.704        2737.949          42.000          40.500    94606551.665 7
  24108390.453        2623.866          45.400


 130478620.647 6 101671658.888 6  24829247.852                    24829255.254
      3171.854        2471.578          40.400          38.700    97435334.561 7
  24829253.738        2368.593          42.900


 113230896.385 8  88231961.220 7  21547129.570                    21547134.480
      2305.063        1796.158          48.100          47.200    84555635.231 8
  21547134.629        1721.308          52.000


 127990824.829 7  99733161.087 6  24355849.664                    24355853.836
     -3164.691       -2465.999          45.100          36.700



 117225057.639 7  91344286.89345  22307191.477                    22307194.496
      2621.973        2043.094          46.700          32.200



 133334390.368 6 103896974.204 5  25372695.531                    25372700.438
      2607.889        2032.116          39.400          34.500



 106797306.152 7  83218706.32946  20322849.047                    20322851.371
       355.895         277.321          46.300          40.600



 134302290.951 6 104651147.653 5  25556890.836                    25556897.660
     -3493.652       -2722.323          36.000          32.800



 18  6 25 13 29 30.0000000  0 10G26G21G10G08G27G29G20G07G16G31
 109065289.115 8  84986032.199 8  20754445.070                    20754451.645
     -1641.308       -1278.933          50.800          50.300    81444947.243 8
  20754451.246       -1225.654          53.800


 112314714.052 8  87517953.02246  21372760.609                    21372762.910
     -1287.875       -1003.536          49.000          39.900



 126584986.361 7  98637768.432 6  24088332.500                    24088339.582
      3510.949        2735.801          42.600          40.700    94527867.445 7
  24088338.883        2621.813          45.200


 130383489.166 6 101597530.520 6  24811144.836                    24811152.504
      3170.337        2470.395          40.900          38.200    97364294.891 7
  24811151.809        2367.458          43.900


 113161871.839 7  88178175.882 7  21533993.898                    21533999.480
      2296.866        1789.766          47.600          46.800    84504090.946 8
  21533999.684        1715.193          51.800


 128085795.138 7  99807163.873 6  24373920.789                    24373926.137
     -3166.565       -2467.449          43.400          36.300



 117146591.915 7  91283144.79045  22292260.156                    22292263.023
      2609.510        2033.386          45.600          32.500



 133256339.292 6 103836155.243 5  25357843.320                    25357847.570
      2595.920        2022.803          39.700          33.800



 106786906.483 7  83210602.69146  20320870.367                    20320872.613
       338.019         263.395          47.800          41.100



 134407048.152 6 104732776.349 6  25576824.672                    25576832.477
     -3490.220       -2719.636          40.000          38.700



 18  6 25 13 30  0.0000000  0 10G26G21G10G08G27G29G20G07G16G31
 109114781.869 8  85024597.970 8  20763863.313                    20763869.996
     -1657.690       -1291.712          51.200          50.200    81481906.094 8
  20763869.477       -1237.881          53.800


 112353531.350 8  87548200.26546  21380147.180                    21380149.977
     -1299.563       -1012.644          48.300          40.400



 126479701.618 7  98555728.472 6  24068297.352                    24068304.719
      3508.084        2733.568          42.600          41.300    94449245.846 7
  24068303.961        2619.669          45.400


 130288402.598 6 101523437.125 6  24793049.969                    24793057.871
      3168.797        2469.186          39.200          39.700    97293288.752 7
  24793057.645        2366.298          44.000


 113093093.571 7  88124582.449 7  21520905.500                    21520911.160
      2288.600        1783.322          47.300          47.200    84452730.570 8
  21520911.074        1709.023          51.600


 128180821.430 7  99881210.254 5  24392004.625                    24392009.301
     -3168.438       -2468.913          43.900          35.900



 117068501.179 7  91222294.87745  22277399.203                    22277402.410
      2596.942        2023.596          46.000          32.300



 133178647.263 6 103775616.040 5  25343060.039                    25343063.926
      2583.885        2013.410          41.400          35.700



 106777043.352 8  83202917.13046  20318993.414                    20318995.645
       320.081         249.410          48.200          41.600



 134511700.333 6 104814323.265 5  25596740.039                    25596746.902
     -3486.724       -2716.925          39.000          35.700



 18  6 25 13 30 30.0000000  0 10G26G21G10G08G27G29G20G07G16G31
 109164766.396 8  85063546.918 8  20773374.711                    20773381.660
     -1674.052       -1304.452          50.600          49.800    81519232.180 8
  20773380.852       -1250.103          53.700


 112392698.092 8  87578719.79946  21387600.555                    21387603.066
     -1311.150       -1021.680          49.800          40.200



 126374503.911 7  98473756.341 6  24048278.930                    24048286.230
      3505.176        2731.301          43.200          40.800    94370689.221 7
  24048285.590        2617.504          45.600


 130193362.155 6 101449379.712 6  24774964.711                    24774972.242
      3167.282        2468.020          40.500          39.000    97222317.046 7
  24774971.254        2365.179          43.700


 113024562.704 7  88071181.803 7  21507864.195                    21507869.996
      2280.407        1776.934          47.500          47.000    84401554.957 8
  21507870.434        1702.896          51.900


 128275902.792 7  99955299.554 6  24410098.078                    24410103.188
     -3170.248       -2470.320          44.700          36.100



 116990788.015 7  91161739.21145  22262610.609                    22262614.512
      2584.339        2013.766          45.800          32.600



 133101316.914 6 103715358.644 5  25328343.305                    25328347.648
      2571.867        2004.050          40.400          34.300



 106767718.417 7  83195650.95046  20317218.828                    20317221.570
       302.204         235.477          46.800          41.300



 134616245.943 6 104895787.034 6  25616633.672                    25616641.906
     -3483.091       -2714.073          37.400          36.800



 18  6 25 13 31  0.0000000  0 10G26G21G10G08G27G29G20G07G16G31
 109215241.591 8  85102878.216 8  20782980.320                    20782987.090
     -1690.416       -1317.207          51.200          50.100    81556924.675 8
  20782986.219       -1262.321          53.400


 112432212.660 8  87609510.36946  21395119.805                    21395122.641
     -1322.759       -1030.723          49.300          40.100



 126269395.848 7  98391854.056 6  24028277.539                    24028284.559
      3502.145        2728.941          42.700          39.900    94292199.556 7
  24028284.266        2615.227          44.800


 130098368.175 6 101375358.459 6  24756887.703                    24756894.734
      3165.726        2466.792          39.500          37.900    97151380.024 7
  24756894.863        2364.013          44.300


 112956280.125 8  88017974.612 7  21494871.047                    21494876.543
      2272.069        1770.439          48.200          47.000    84350564.736 8
  21494877.098        1696.682          51.900


 128371038.452 7 100029431.187 6  24428201.266                    24428206.746
     -3172.069       -2471.749          44.500          36.300



 116913455.329 7  91101479.98945  22247895.453                    22247898.793
      2571.585        2003.838          46.600          33.100



 133024351.199 6 103655385.400 5  25313697.109                    25313701.625
      2559.620        1994.511          40.900          31.400



 106758931.880 7  83188804.28246  20315546.844                    20315549.180
       284.180         221.441          47.000          41.000



 134720681.944 5 104977165.525 5  25636507.750                    25636515.715
     -3479.431       -2711.235          31.500          31.200



 18  6 25 13 31 30.0000000  0 10G26G21G10G08G27G29G20G07G16G31
 109266206.599 8  85142591.181 8  20792678.289                    20792685.121
     -1706.752       -1329.938          50.300          49.200    81594982.930 8
  20792684.133       -1274.514          53.600


 112472073.396 8  87640570.67946  21402704.922                    21402707.535
     -1334.275       -1039.698          49.000          39.200



 126164380.525 6  98310024.025 6  24008293.805                    24008300.980
      3498.977        2726.469          41.800          40.200    94213779.128 7
  24008300.570        2612.867          44.700


 130003421.058 6 101301373.751 6  24738820.484                    24738827.527
      3164.082        2465.520          40.100          38.800    97080478.034 7
  24738828.121        2362.784          45.600


 112888246.692 8  87964961.566 7  21481924.273                    21481930.371
      2263.741        1763.952          48.300          46.700    84299760.575 8
  21481930.871        1690.458          52.200


 128466227.849 7 100103604.643 6  24446315.586                    24446321.613
     -3173.852       -2473.125          43.400          37.000



 116836506.042 7  91041519.50445  22233252.406                    22233255.906
      2558.751        1993.835          45.600          32.200



 132947752.116 6 103595697.785 5  25299121.484                    25299125.336
      2547.346        1984.935          40.500          34.700



 106750684.959 7  83182378.10046  20313977.867                    20313980.363
       266.160         207.399          47.900          41.100



 134825006.702 6 105058457.156 5  25656360.195                    25656368.699
     -3475.665       -2708.289          37.900          35.200



 18  6 25 13 32  0.0000000  0 10G26G21G10G08G27G29G20G07G16G31
 109317660.196 8  85182684.879 8  20802469.703                    20802476.465
     -1722.980       -1342.578          50.500          49.300    81633406.055 8
  20802475.535       -1286.637          53.600


 112512278.670 8  87671899.45846  21410356.453                    21410358.582
     -1345.728       -1048.616          49.800          40.200



 126059460.569 6  98228268.348 6  23988327.758                    23988334.961
      3495.762        2723.959          41.700          39.900    94135429.936 7
  23988334.492        2610.462          45.000


 129908521.908 6 101227426.435 6  24720761.813                    24720768.414
      3162.530        2464.296          39.300          37.300    97009611.843 7
  24720768.484        2361.630          44.300


 112820463.078 8  87912143.170 7  21469025.422                    21469031.469
      2255.426        1757.472          48.500          47.100    84249142.961 8
  21469031.848        1684.243          52.500


 128561470.064 7 100177819.313 6  24464440.086                    24464445.281
     -3175.594       -2474.493          45.000          36.900



 116759942.380 7  90981859.52445  22218682.484                    22218686.316
      2545.868        1983.798          46.400          32.700



 132871521.835 6 103536297.636 5  25284615.281                    25284619.262
      2535.026        1975.352          40.800          34.000



 106742977.980 7  83176372.66246  20312510.836                    20312513.582
       248.182         193.380          47.600          41.700



 134929217.459 6 105139660.032 5  25676191.891                    25676199.496
     -3471.851       -2705.338          36.500          33.300



 18  6 25 13 32 30.0000000  0 10G26G21G10G08G27G29G20G07G16G31
 109369601.392 8  85223158.532 8  20812354.125                    20812360.832
     -1739.208       -1355.233          50.600          49.200    81672193.308 8
  20812359.844       -1298.765          53.500


 112552827.130 8  87703495.64946  21418071.906                    21418073.988
     -1357.105       -1057.479          50.000          39.700



 125954638.948 7  98146589.213 6  23968380.680                    23968388.641
      3492.465        2721.397          42.400          40.200    94057154.132 7
  23968388.000        2608.005          44.800


 129813670.985 6 101153516.654 6  24702711.578                    24702718.328
      3160.926        2463.049          39.500          38.400    96938781.673 7
  24702718.453        2360.422          44.500


 112752930.143 8  87859520.131 7  21456174.258                    21456180.270
      2247.077        1750.973          48.500          47.400    84198712.554 8
  21456180.590        1678.010          51.900


 128656764.683 7 100252074.790 6  24482574.648                    24482578.402
     -3177.325       -2475.837          45.300          36.700



 116683767.501 7  90922502.49145  22204187.359                    22204190.734
      2532.880        1973.671          46.600          34.600



 132795662.690 6 103477186.641 5  25270179.680                    25270183.637
      2522.668        1965.726          40.200          35.300



 106735811.956 7  83170788.74546  20311147.328                    20311149.668
       230.137         179.325          46.800          41.700



 135033311.816 6 105220772.142 6  25695998.953                    25696007.578
     -3467.854       -2702.214          38.300          36.900



 18  6 25 13 33  0.0000000  0 10G26G21G10G08G27G29G20G07G16G31
 109422029.487 8  85264011.579 8  20822330.930                    20822337.344
     -1755.419       -1367.859          51.400          49.800    81711344.133 8
  20822336.473       -1310.866          53.400


 112593717.278 8  87735358.10446  21425853.242                    21425855.801
     -1368.473       -1066.339          49.500          40.100



 125849918.655 7  98064989.070 6  23948452.805                    23948460.301
      3489.023        2718.717          42.200          41.300    93978954.003 7
  23948460.246        2605.434          44.700


 129718869.303 6 101079645.235 6  24684671.813                    24684679.098
      3159.290        2461.785          38.600          39.200    96867988.237 7
  24684678.637        2359.211          44.900


 112685649.068 8  87807093.339 7  21443371.328                    21443376.922
      2238.671        1744.425          49.000          47.000    84148470.203 8
  21443377.008        1671.734          51.900


 128752111.158 7 100326370.671 6  24500717.398                    24500723.219
     -3179.024       -2477.152          44.300          37.200



 116607983.929 7  90863450.37145  22189766.063                    22189770.207
      2519.837        1963.507          46.600          34.200



 132720177.165 6 103418366.819 5  25255815.820                    25255818.953
      2510.164        1955.972          40.100          34.800



 106729187.945 7  83165627.16746  20309886.797                    20309889.629
       212.075         165.254          47.100          41.000



 135137287.389 6 105301791.732 5  25715786.195
     -3463.946       -2699.118          37.500          35.000



 18  6 25 13 33 30.0000000  0 10G26G21G10G08G27G29G20G07G16G31
 109474943.388 8  85305243.176 8  20832400.328                    20832406.938
     -1771.628       -1380.491          51.000          49.500    81750857.745 8
  20832406.008       -1322.968          53.800


 112634947.490 8  87767485.54246  21433698.750                    21433701.348
     -1379.802       -1075.172          49.500          39.300



 125745302.645 6  97983470.181 6  23928544.211                    23928551.742
      3485.473        2715.956          40.600          39.900    93900831.758 7
  23928551.336        2602.786          45.000


 129624117.729 6 101005812.902 6  24666641.680                    24666648.203
      3157.579        2460.441          39.400          39.200    96797232.262 7
  24666648.387        2357.933          45.100


 112618620.669 8  87754863.428 7  21430616.531                    21430622.008
      2230.202        1737.821          49.500          46.700    84098416.552 8
  21430622.273        1665.412          51.900


 128847508.939 7 100400706.537 6  24518871.063                    24518876.156
     -3180.752       -2478.494          44.000          37.100



 116532594.188 7  90804705.13745  22175420.063                    22175423.563
      2506.614        1953.205          47.000          32.900



 132645067.950 6 103359840.191 5  25241522.672                    25241526.699
      2497.585        1946.166          41.000          33.800



 106723107.139 7  83160888.87646  20308729.414                    20308731.977
       193.937         151.124          46.500          39.700



 135241142.936 5 105382717.926 5  25735548.516                    25735557.504
     -3459.853       -2695.976          34.500          34.600



 18  6 25 13 34  0.0000000  0 10G26G21G10G08G27G29G20G07G16G31
 109528341.976 8  85346852.451 8  20842561.555                    20842568.223
     -1787.773       -1393.073          50.600          49.700    81790733.291 9
  20842566.941       -1335.025          54.100


 112676515.987 8  87799876.57546  21441609.570                    21441611.875
     -1391.052       -1083.933          50.000          39.700



 125640793.607 6  97902034.638 6  23908657.133                    23908665.055
      3481.868        2713.149          41.500          40.200    93822789.378 7
  23908663.008        2600.095          43.900


 129529416.475 6 100932019.775 6  24648619.172                    24648626.563
      3155.852        2459.100          38.600          40.400    96726513.859 7
  24648627.219        2356.640          45.300


 112551845.773 8  87702831.042 8  21417909.758                    21417915.125
      2221.726        1731.216          49.600          48.100    84048552.201 8
  21417915.270        1659.078          52.000


 128942957.030 7 100475081.599 5  24537034.563                    24537039.387
     -3182.406       -2479.795          44.500          35.900



 116457600.878 7  90746268.82245  22161149.320                    22161153.125
      2493.348        1942.859          47.400          33.400



 132570336.879 6 103301608.218 5  25227302.094                    25227305.496
      2484.923        1936.291          40.500          34.000



 106717569.344 7  83156573.71046  20307675.844                    20307678.086
       175.841         137.015          46.200          40.700



 135344874.950 4 105463547.907 5  25755288.945                    25755298.582
     -3455.729       -2692.768          26.400          33.000



 18  6 25 13 34 30.0000000  0 10G26G21G10G08G27G29G20G07G16G31
 109582223.944 8  85388838.389 8  20852814.906                    20852821.590
     -1803.865       -1405.610          50.600          49.200    81830969.808 8
  20852820.367       -1347.048          53.800


 112718421.206 8  87832529.98646  21449583.859                    21449586.207
     -1402.278       -1092.686          49.500          39.600



 125536394.275 6  97820684.596 6  23888791.008                    23888798.563
      3478.174        2710.256          41.400          41.300    93744828.954 7
  23888797.746        2597.330          44.600


 129434766.337 6 100858266.473 6  24630609.195                    24630616.012
      3154.201        2457.827          39.900          39.600    96655833.619 7
  24630614.965        2355.413          44.100


 112485325.004 8  87650996.707 7  21405250.953                    21405256.855
      2213.241        1724.608          50.300          47.600    83998877.606 8
  21405257.059        1652.742          51.900


 129038454.877 7 100549495.400 6  24555206.750                    24555212.488
     -3184.087       -2481.107          43.600          36.100



 116383006.701 7  90688143.49045  22146953.438                    22146957.938
      2480.019        1932.483          47.000          34.200



 132495986.534 6 103243672.920 5  25213151.906                    25213157.020
      2472.163        1926.364          39.100          35.500



 106712575.382 7  83152682.31646  20306725.313                    20306727.617
       157.677         122.860          47.200          41.100



 135448481.739 5 105544279.966 5  25775005.578
     -3451.606       -2689.585          34.800          31.400



 18  6 25 13 35  0.0000000  0 10G26G21G10G08G27G29G20G07G16G31
 109636588.634 8  85431200.464 8  20863160.031                    20863167.520
     -1819.923       -1418.124          50.700          49.500    81871566.791 8
  20863166.297       -1359.028          53.500


 112760661.962 8  87865444.86346  21457621.914                    21457624.328
     -1413.412       -1101.356          49.100          40.100



 125432107.930 7  97739422.598 6  23868945.555                    23868953.043
      3474.347        2707.280          42.000          39.900    93666952.872 7
  23868953.047        2594.476          44.700


 129340168.250 6 100784553.739 6  24612606.938                    24612614.203
      3152.401        2456.415          39.600          39.800    96585192.266 7
  24612614.387        2354.061          45.200


 112419059.574 8  87599361.334 7  21392641.344                    21392646.820
      2204.722        1717.959          48.600          47.900    83949393.702 8
  21392647.320        1646.379          52.300


 129134001.773 7 100623947.461 6  24573389.000                    24573394.309
     -3185.681       -2482.350          44.400          36.100



 116308814.580 7  90630331.47245  22132836.063                    22132839.566
      2466.568        1922.002          46.000          33.700



 132422019.191 6 103186036.076 5  25199076.102                    25199081.824
      2459.416        1916.438          38.300          35.000



 106708126.438 7  83149215.60946  20305878.891                    20305881.563
       139.526         108.722          46.000          40.900



 135551960.705 5 105624912.522 4  25794698.469                    25794704.133
     -3447.287       -2686.215          31.800          29.900



 18  6 25 13 35 30.0000000  0 10G26G21G10G08G27G29G20G07G16G31
 109691434.747 8  85473937.677 7  20873596.992                    20873604.219
     -1835.963       -1430.621          49.800          47.500    81912523.284 8
  20873603.234       -1371.008          53.900


 112803236.493 8  87898619.82746  21465723.523                    21465726.055
     -1424.504       -1110.007          50.000          39.700



 125327937.222 7  97658250.728 6  23849122.063                    23849130.621
      3470.468        2704.267          42.400          39.600    93589163.156 7
  23849129.688        2591.582          45.100


 129245622.648 6 100710881.897 6  24594615.672                    24594623.027
      3150.638        2455.033          39.000          40.200    96514590.083 7
  24594622.629        2352.746          45.000


 112353050.181 8  87547925.469 7  21380079.992                    21380085.895
      2196.178        1711.310          49.400          46.700    83900101.001 8
  21380085.980        1640.001          52.300


 129229597.367 7 100698437.466 5  24591580.219                    24591585.488
     -3187.268       -2483.582          43.300          35.800



 116235026.871 7  90572834.58745  22118794.352                    22118798.488
      2453.049        1911.466          46.700          34.200



 132348436.802 6 103128699.182 5  25185074.430
      2446.529        1906.386          39.500          34.900



 106704223.007 7  83146173.96746  20305135.992                    20305138.664
       121.317          94.533          46.500          40.500



 135655310.270 3                  25814363.539
     -3442.837                          23.800



 18  6 25 13 36  0.0000000  0  9G26G21G10G08G27G29G20G07G16
 109746761.485 8  85517049.397 8  20884125.469                    20884132.594
     -1851.989       -1443.111          50.300          50.200    81953838.680 8
  20884131.430       -1382.977          53.700


 112846143.510 8  87932053.86646  21473888.383                    21473891.039
     -1435.599       -1118.646          49.500          40.100



 125223885.432 6  97577171.517 6  23829321.961                    23829330.406
      3466.420        2701.098          41.400          41.700    93511462.259 7
  23829329.063        2588.556          45.500


 129151130.604 6 100637251.753 6  24576634.086                    24576641.563
      3148.830        2453.637          38.000          40.500    96444027.885 7
  24576641.688        2351.401          44.500


 112287298.104 8  87496690.095 8  21367567.844                    21367572.922
      2187.557        1704.587          49.200          48.200    83851000.436 8
  21367573.242        1633.561          52.200


 129325240.867 7 100772964.798 6  24609780.352                    24609786.891
     -3188.911       -2484.859          43.200          37.100



 116161646.724 7  90515655.28745  22104830.539                    22104834.934
      2439.390        1900.822          46.400          34.000



 132275241.892 6 103071664.263 5  25171146.750                    25171151.156
      2433.517        1896.246          41.200          34.500



 106700866.327 7  83143558.36846  20304496.992                    20304499.508
       103.041          80.293          46.400          41.100



 18  6 25 13 36 30.0000000  0 10G26G21G10G08G27G29G20G07G16G31
 109802567.464 8  85560534.554 8  20894745.102                    20894751.957
     -1867.942       -1455.540          49.900          49.600    81995511.945 8
  20894750.797       -1394.891          53.600


 112889381.278 8  87965745.62646  21482116.430                    21482118.992
     -1446.589       -1127.208          48.900          39.900



 125119955.063 7  97496186.894 6  23809545.352                    23809552.859
      3462.343        2697.922          42.000          41.800    93433852.024 7
  23809551.633        2585.513          45.400


 129056692.486 6 100563663.692 6  24558663.258                    24558670.605
      3147.050        2452.250          39.200          40.000    96373506.005 7
  24558670.500        2350.066          45.000


 112221803.868 8  87445655.639 7  21355104.523                    21355109.969
      2178.965        1697.894          48.400          47.200    83802092.419 8
  21355110.234        1627.145          52.500


 129420931.636 7 100847528.984 6  24627990.539                    24627995.879
     -3190.509       -2486.112          42.100          36.300



 116088676.090 7  90458795.07045  22090944.242                    22090948.648
      2425.689        1890.145          46.000          33.000



 132202437.015 6 103014933.188 5  25157292.508                    25157297.383
      2420.528        1886.125          40.900          34.600



 106698056.612 7  83141368.97846  20303962.398                    20303965.191
        84.816          66.090          46.100          40.900



 135861608.122 6 105866297.092 6  25853623.313                    25853631.508
     -3433.957       -2675.781          40.100          36.900



 18  6 25 13 37  0.0000000  0 10G26G21G10G08G27G29G20G07G16G31
 109858851.627 8  85604392.325 8  20905455.172                    20905462.395
     -1883.832       -1467.916          50.000          49.600    82037542.303 8
  20905461.582       -1406.753          53.600


 112932948.440 8  87999694.06946  21490407.094                    21490409.355
     -1457.536       -1135.745          50.000          40.200



 125016149.188 6  97415299.285 6  23789790.703                    23789798.996
      3458.180        2694.684          40.400          41.900    93356334.767 7
  23789798.473        2582.402          46.000


 128962308.984 6 100490118.147 6  24540702.742                    24540709.879
      3145.222        2450.817          39.200          39.800    96303024.865 7
  24540709.715        2348.699          45.000


 112156568.500 8  87394822.911 7  21342690.984                    21342696.297
      2170.319        1691.153          48.300          47.900    83753377.718 8
  21342696.500        1620.692          52.400


 129516668.855 7 100922129.358 6  24646209.102                    24646214.695
     -3192.000       -2487.269          43.700          36.800



 116016117.836 7  90402256.21045  22077136.445                    22077140.938
      2411.936        1879.428          46.500          33.700



 132130024.328 6 102958507.724 5  25143513.023                    25143518.305
      2407.414        1875.914          41.800          35.000



 106695794.455 7  83139606.24846  20303532.141                    20303534.453
        66.579          51.882          46.200          40.800



 135964556.775 5 105946516.441 5  25873213.508                    25873221.859
     -3429.415       -2672.218          35.800          33.500



 18  6 25 13 37 30.0000000  0 10G26G21G10G08G27G29G20G07G16G31
 109915612.803 8  85648621.792 8  20916256.547                    20916263.590
     -1899.710       -1480.298          49.200          49.000    82079928.870 8
  20916262.781       -1418.609          53.500


 112976843.057 8  88033897.66246  21498759.875                    21498762.508
     -1468.403       -1144.210          49.900          39.500



 124912470.627 6  97334510.884 7  23770061.227                    23770069.754
      3453.883        2691.338          40.900          42.100    93278912.578 7
  23770069.227        2579.195          46.200


 128867980.837 6 100416615.763 6  24522752.414                    24522759.438
      3143.324        2449.335          38.200          40.100    96232585.081 7
  24522760.090        2347.281          46.100


 112091592.794 8  87344192.504 8  21330326.164                    21330331.855
      2161.690        1684.431          49.900          48.600    83704856.918 8
  21330332.117        1614.252          52.900


 129612452.055 7 100996765.536 6  24664434.867                    24664441.973
     -3193.496       -2488.439          43.100          37.900



 115943974.411 7  90346040.58145  22063408.734                    22063412.086
      2398.069        1868.624          46.300          32.500



 132058006.218 6 102902389.734 6  25129807.453                    25129813.387
      2394.287        1865.684          41.100          36.500



 106694080.599 7  83138270.77746  20303206.313                    20303208.676
        48.287          37.620          47.000          40.900



 136067366.937 7 106026633.846 5  25892778.578
     -3424.760       -2668.621          44.500          34.400



 18  6 25 13 38  0.0000000  0 10G26G21G10G08G27G29G20G07G16G31
 109972849.952 8  85693222.150 8  20927148.406                    20927155.555
     -1915.531       -1492.625          49.200          48.900    82122670.881 9
  20927154.801       -1430.427          54.100


 113021063.888 8  88068355.45446  21507174.508                    21507177.473
     -1479.241       -1152.649          49.000          39.600



 124808922.370 6  97253824.046 7  23750356.805                    23750365.008
      3449.508        2687.924          41.100          43.100    93201587.704 7
  23750364.246        2575.924          46.300


 128773708.883 6 100343157.109 6  24504813.664                    24504819.309
      3141.515        2447.941          40.200          38.800    96162187.258 7
  24504820.137        2345.929          45.300


 112026877.789 8  87293765.246 8  21318011.320                    21318016.887
      2152.985        1677.650          49.300          48.000    83656530.799 8
  21318017.207        1607.755          52.700


 129708281.047 7 101071437.428 6  24682671.055                    24682677.191
     -3194.990       -2489.597          42.500          37.100



 115872248.648 7  90290150.41345  22049759.688                    22049763.297
      2384.121        1857.756          47.600          33.000



 131986384.552 7 102846580.692 6  25116178.461                    25116184.699
      2381.015        1855.335          42.200          37.300



 106692915.851 7  83137363.17746  20302983.945                    20302986.719
        29.979          23.359          46.900          40.400



 136170033.918 4 106106633.888 3  25912314.820                    25912324.574
     -3420.065       -2664.969          28.900          22.300



 18  6 25 13 38 30.0000000  0  9G26G21G10G08G27G29G20G07G16
 110030561.920 8  85738192.501 8  20938130.477                    20938137.379
     -1931.358       -1504.956          48.700          48.700    82165767.463 8
  20938137.035       -1442.243          53.800


 113065609.178 8  88103066.07046  21515651.719                    21515654.195
     -1490.044       -1161.074          48.600          40.200



 124705507.485 7  97173241.109 7  23730677.602                    23730685.117
      3444.986        2684.406          42.200          42.300    93124362.404 7
  23730684.887        2572.552          46.700


 128679494.054 6 100269743.015 6  24486884.836                    24486891.750
      3139.535        2446.398          39.600          39.500    96091832.059 7
  24486892.402        2344.457          45.400


 111962424.377 8  87243541.831 8  21305746.711                    21305751.965
      2144.229        1670.824          48.900          48.300    83608400.040 8
  21305752.227        1601.207          53.000


 129804154.826 7 101146144.203 6  24700914.125                    24700921.656
     -3196.496       -2490.765          42.800          37.500



 115800943.204 7  90234587.74545  22036190.578                    22036193.941
      2370.063        1846.792          46.900          33.600



 131915161.642 6 102791082.365 6  25102625.406                    25102631.547
      2367.644        1844.910          41.100          36.500



 106692300.712 7  83136883.84146  20302867.578                    20302869.570
        11.641           9.075          46.300          40.400



 18  6 25 13 39  0.0000000  0  9G26G21G10G08G27G29G20G07G16
 110088747.460 8  85783531.869 8  20949202.750                    20949209.750
     -1947.110       -1517.223          48.800          48.700    82209217.692 8
  20949209.348       -1454.011          53.700


 113110477.457 8  88138028.36646  21524189.156                    21524192.035
     -1500.774       -1169.431          50.000          39.400



 124602228.623 6  97092764.180 7  23711024.656                    23711032.086
      3440.428        2680.845          41.300          42.200    93047238.697 7
  23711031.094        2569.148          46.700


 128585336.711 6 100196373.700 6  24468966.211                    24468973.707
      3137.702        2444.968          39.000          39.600    96021519.825 7
  24468973.016        2343.091          44.500


 111898233.417 8  87193522.917 7  21293531.594                    21293536.754
      2135.479        1664.009          49.900          47.800    83560465.254 8
  21293537.309        1594.675          52.900


 129900072.443 6 101220885.130 6  24719167.313                    24719174.223
     -3197.942       -2491.898          41.400          37.400



 115730060.397 7  90179354.41245  22022702.094                    22022705.891
      2355.943        1835.799          47.500          33.100



 131844339.981 7 102735896.679 5  25089149.266                    25089153.320
      2354.246        1834.482          42.000          33.900



 106692235.775 7  83136833.23946  20302854.797                    20302857.148
        -6.691          -5.211          47.900          41.100



 18  6 25 13 39 30.0000000  0  9G26G21G10G08G27G29G20G07G16
 110147405.253 8  85829239.218 8  20960365.234                    20960372.152
     -1962.888       -1529.518          48.800          48.600    82253020.564 9
  20960371.578       -1465.793          54.300


 113155666.909 8  88173240.93046  21532788.859                    21532791.660
     -1511.487       -1177.784          49.900          39.700



 124499088.725 6  97012395.501 6  23691397.016                    23691404.680
      3435.715        2677.175          41.300          41.600    92970218.732 7
  23691404.625        2565.625          46.600


 128491237.714 6 100123049.851 6  24451060.258                    24451066.945
      3135.644        2443.350          39.700          39.700    95951251.141 7
  24451066.250        2341.553          44.300


 111834305.695 8  87143709.121 7  21281366.555                    21281371.844
      2126.638        1657.117          49.600          47.900    83512727.035 8
  21281372.227        1588.074          52.700


 129996033.551 7 101295659.935 6  24737428.531                    24737435.371
     -3199.399       -2493.039          43.200          36.700



 115659602.838 8  90124452.45045  22009294.539                    22009297.813
      2341.705        1824.701          48.300          33.200



 131773921.605 7 102681025.248 5  25075748.648                    25075753.691
      2340.755        1823.960          42.300          34.400



 106692721.478 7  83137211.70746  20302947.359                    20302949.961
       -25.076         -19.540          47.500          40.900



 18  6 25 13 40  0.0000000  0  9G26G21G10G08G27G29G20G07G16
 110206534.067 8  85875313.606 7  20971617.242                    20971623.836
     -1978.522       -1541.703          49.100          47.900    82297175.180 8
  20971623.199       -1477.472          53.800


 113201176.052 8  88208702.60046  21541449.102                    21541451.773
     -1522.099       -1186.054          50.500          39.000



 124396090.559 7  96932137.269 7  23671797.141                    23671805.000
      3430.992        2673.499          42.200          42.300    92893304.607 7
  23671804.297        2562.104          46.800


 128397197.496 6 100049771.807 6  24433165.195                    24433172.543
      3133.716        2441.856          38.800          39.200    95881026.370 7
  24433172.375        2340.114          44.600


 111770642.032 8  87094101.084 7  21269251.000                    21269256.203
      2117.887        1650.303          49.700          47.100    83465186.014 8
  21269256.645        1581.533          52.700


 130092037.430 7 101370468.090 6  24755697.766                    24755704.402
     -3200.805       -2494.132          43.100          36.500



 115589572.885 8  90069883.69045  21995968.734                    21995971.266
      2327.428        1813.578          48.000          32.800



 131703908.803 7 102626469.841 6  25062425.445                    25062430.094
      2327.194        1813.401          42.600          36.000



 106693758.185 8  83138019.52346  20303144.805                    20303147.113
       -43.429         -33.840          48.600          40.900



 18  6 25 13 40 30.0000000  0  9G26G21G10G08G27G29G20G07G16
 110266132.748 8  85921754.124 8  20982958.570                    20982965.137
     -1994.191       -1553.920          49.200          48.500    82341680.660 8
  20982964.559       -1489.169          53.500


 113247003.576 8  88244412.35246  21550169.195                    21550172.336
     -1532.706       -1194.315          50.200          39.800



 124293237.286 7  96851991.933 7  23652225.258                    23652232.414
      3426.063        2669.656          43.400          42.400    92816498.686 7
  23652232.418        2558.420          47.200


 128303216.872 6  99976540.172 6  24415281.734                    24415288.098
      3131.709        2440.298          39.700          39.600    95810846.083 7
  24415287.113        2338.609          44.400


 111707243.508 8  87044699.644 7  21257186.891                    21257192.215
      2108.991        1643.369          50.000          47.600    83417842.979 8
  21257192.242        1574.895          52.400


 130188083.568 7 101445309.163 6  24773975.008                    24773981.574
     -3202.201       -2495.213          42.500          36.900



 115519973.182 7  90015650.17545  21982724.023                    21982726.980
      2313.023        1802.355          47.500          33.300



 131634303.901 7 102572232.325 5  25049179.398                    25049185.152
      2313.567        1802.785          42.600          34.200



 106695346.911 7  83139257.47746  20303447.586                    20303449.688
       -61.871         -48.210          46.400          40.200



 18  6 25 13 41  0.0000000  0  9G26G21G10G08G27G29G20G07G16
 110326199.805 8  85968559.603 8  20994388.938                    20994395.008
     -2009.748       -1566.040          49.100          48.800    82386535.905 8
  20994394.551       -1500.786          53.700


 113293147.360 8  88280368.55046  21558950.422                    21558952.980
     -1543.177       -1202.481          49.700          39.200



 124190531.506 7  96771961.522 7  23632680.563                    23632687.785
      3421.122        2665.809          43.600          42.100    92739802.906 7
  23632687.613        2554.738          47.700


 128209296.473 6  99903355.528 6  24397409.133                    24397415.777
      3129.734        2438.746          38.500          38.900    95740710.780 7
  24397414.730        2337.134          44.400


 111644110.714 8  86995505.275 8  21245173.641                    21245178.625
      2100.155        1636.486          49.900          48.200    83370698.374 8
  21245178.594        1568.293          52.400


 130284171.476 6 101520182.816 6  24792259.188                    24792266.004
     -3203.542       -2496.271          41.300          36.500



 115450806.095 8  89961753.77645  21969561.852                    21969564.445
      2298.623        1791.139          48.300          32.300



 131565108.595 7 102518313.930 5  25036012.547                    25036018.090
      2299.942        1792.157          42.600          35.400



 106697487.607 7  83140925.54946  20303854.586                    20303856.715
       -80.243         -62.522          47.500          40.500



 18  6 25 13 41 30.0000000  0  9G26G21G10G08G27G29G20G07G16
 110386734.093 8  86015729.143 8  21005908.641                    21005914.813
     -2025.317       -1578.165          50.300          48.500    82431740.049 8
  21005914.234       -1512.410          53.100


 113339605.930 8  88316570.02446  21567790.867                    21567793.953
     -1553.695       -1210.671          49.500          40.100



 124087976.169 7  96692048.334 7  23613164.789                    23613172.262
      3416.063        2661.866          43.500          42.300    92663219.440 7
  23613171.211        2550.963          46.500


 128115437.292 6  99830218.540 6  24379548.078                    24379555.195
      3127.656        2437.133          40.200          39.900    95670621.170 7
  24379554.094        2335.585          44.000


 111581244.650 8  86946518.734 7  21233210.336                    21233215.613
      2091.216        1629.518          49.800          47.700    83323752.949 8
  21233215.699        1561.624          52.100


 130380300.102 7 101595088.183 6  24810552.484                    24810558.496
     -3204.942       -2497.370          42.200          37.500



 115382074.281 8  89908196.54245  21956483.008                    21956485.492
      2284.009        1779.744          48.600          33.400



 131496325.410 7 102464716.661 5  25022923.523                    25022928.633
      2286.074        1781.358          42.000          34.500



 106700180.979 7  83143024.28246  20304366.781                    20304369.453
       -98.696         -76.911          46.700          40.700



 18  6 25 13 42  0.0000000  0  9G26G21G10G08G27G29G20G07G16
 110447734.769 8  86063262.122 8  21017516.281                    21017522.840
     -2040.885       -1590.304          49.800          48.800    82477292.479 8
  21017521.676       -1524.041          53.100


 113386378.215 8  88353015.95246  21576691.477                    21576694.332
     -1564.115       -1218.789          50.100          39.300



 123985574.702 7  96612255.075 6  23593678.430                    23593685.465
      3410.865        2657.821          44.300          41.000    92586750.917 7
  23593684.766        2547.065          46.500


 128021639.857 6  99757129.623 6  24361699.219                    24361705.348
      3125.568        2435.519          40.200          39.400    95600577.670 7
  24361706.063        2334.032          45.200


 111518646.646 8  86897741.087 8  21221298.250                    21221303.398
      2082.249        1622.533          50.100          48.400    83277007.701 8
  21221303.074        1554.925          51.700


 130476469.176 6 101670025.026 6  24828852.258                    24828859.516
     -3206.338       -2498.443          41.100          36.900



 115313780.531 8  89854980.64445  21943487.164                    21943489.414
      2269.364        1768.341          49.600          33.600



 131427956.778 7 102411442.450 5  25009913.164                    25009918.188
      2272.236        1770.569          42.300          35.000



 106703428.083 7  83145554.47146  20304984.773                    20304987.457
      -117.186         -91.310          46.900          40.200



 18  6 25 13 42 30.0000000  0  9G26G21G10G08G27G29G20G07G16
 110509199.842 8  86111156.961 8  21029213.078                    21029219.051
     -2056.320       -1602.333          50.500          48.400    82523191.691 8
  21029218.184       -1535.565          53.800


 113433462.080 8  88389704.67146  21585651.570                    21585653.738
     -1574.461       -1226.853          50.200          39.200



 123883329.355 7  96532583.422 7  23574222.336                    23574229.039
      3405.600        2653.712          44.500          42.400    92510398.936 7
  23574228.105        2543.137          46.600


 127927905.237 6  99684089.730 6  24343861.867                    24343867.691
      3123.447        2433.857          39.400          39.700    95530581.114 7
  24343869.164        2332.437          44.900


 111456317.017 8  86849172.548 8  21209437.141                    21209442.391
      2073.311        1615.564          50.600          48.100    83230462.861 8
  21209442.480        1548.251          51.400


 130572677.632 7 101744992.597 6  24847161.406                    24847167.328
     -3207.555       -2499.400          43.300          36.300



 115245926.536 8  89802107.42445  21930574.750                    21930577.488
      2254.666        1756.886          48.800          33.500



 131360004.420 7 102358492.542 5  24996982.016                    24996986.445
      2258.362        1759.764          42.800          33.800



 106707228.536 7  83148515.87046  20305707.680                    20305710.414
      -135.615        -105.677          45.900          39.600



 18  6 25 13 43  0.0000000  0  9G26G21G10G08G27G29G20G07G16
 110571128.391 8  86159412.942 8  21040997.273                    21041003.809
     -2071.747       -1614.344          49.600          48.700    82569437.009 8
  21041003.172       -1547.080          53.200


 113480856.232 8  88426635.17746  21594669.813                    21594672.863
     -1584.793       -1234.908          49.600          39.400



 123781243.375 7  96453035.975 7  23554794.969                    23554803.379
      3400.273        2649.559          43.800          42.400    92434165.959 7
  23554802.676        2539.159          46.600


 127834233.983 6  99611099.223 6  24326036.766                    24326043.727
      3121.322        2432.207          38.700          39.900    95460631.848 7
  24326042.684        2330.856          44.400


 111394256.924 8  86800814.055 8  21197627.617                    21197633.043
      2064.328        1608.567          49.700          48.300    83184119.303 8
  21197633.012        1541.534          51.400


 130668925.287 6 101819990.685 6  24865476.117                    24865483.160
     -3208.859       -2500.401          39.400          36.800



 115178515.371 8  89749579.26745  21917746.727                    21917749.387
      2239.889        1745.364          48.200          33.700



 131292470.638 7 102305868.850 5  24984130.977                    24984136.133
      2244.375        1748.872          43.000          34.100



 106711583.176 7  83151909.08846  20306536.281                    20306539.063
      -154.097        -120.079          46.300          40.000



 18  6 25 13 43 30.0000000  0  9G26G21G10G08G27G29G20G07G16
 110633519.158 8  86208029.105 8  21052870.188                    21052876.613
     -2087.133       -1626.338          50.900          49.300    82616027.491 8
  21052875.746       -1558.573          53.700


 113528558.986 8  88463806.14046  21603747.328                    21603750.113
     -1595.053       -1242.900          49.400          39.300



 123679319.787 7  96373615.047 7  23535399.789                    23535408.781
      3394.796        2645.293          44.000          43.200    92358054.267 7
  23535407.438        2535.073          46.500


 127740626.778 6  99538158.624 6  24308223.914                    24308230.652
      3119.156        2430.506          38.400          39.600    95390730.442 7
  24308229.781        2329.234          44.900


 111332467.378 8  86752666.368 8  21185869.508                    21185875.164
      2055.268        1601.512          49.900          48.500    83137977.769 8
  21185874.844        1534.780          52.000


 130765211.519 6 101895018.897 6  24883797.984                    24883805.180
     -3210.202       -2501.452          40.400          37.700



 115111549.179 8  89697397.83345  21905003.953                    21905006.094
      2224.992        1733.761          48.800          33.800



 131225357.589 6 102253572.999 5  24971359.531                    24971365.063
      2230.302        1737.893          41.500          35.700



 106716492.497 7  83155734.52846  20307470.680                    20307473.039
      -172.604        -134.495          46.900          40.500



 18  6 25 13 44  0.0000000  0  9G26G21G10G08G27G29G20G07G16
 110696370.598 8  86257004.226 8  21064830.148                    21064836.902
     -2102.456       -1638.281          50.500          48.900    82662961.978 8
  21064836.090       -1570.017          53.100


 113576568.616 8  88501216.24246  21612883.156                    21612886.395
     -1605.243       -1250.836          49.600          39.000



 123577561.264 7  96294322.743 7  23516036.203                    23516044.309
      3389.274        2640.992          44.300          43.600    92282065.825 7
  23516042.551        2530.953          47.000


 127647084.413 6  99465268.479 6  24290423.930                    24290429.469
      3117.048        2428.860          39.800          40.800    95320877.426 7
  24290429.305        2327.663          44.800


 111270949.082 8  86704730.050 8  21174162.727                    21174168.414
      2046.240        1594.473          50.300          48.700    83092038.800 8
  21174168.207        1528.038          51.400


 130861535.804 6 101970076.689 6  24902128.398                    24902134.734
     -3211.422       -2502.409          40.500          36.200



 115045030.628 8  89645565.20945  21892345.633                    21892348.559
      2210.043        1722.117          48.400          34.200



 131158667.175 7 102201606.492 6  24958668.555                    24958673.680
      2216.181        1726.886          42.900          36.100



 106721956.614 7  83159992.28446  20308510.531                    20308512.906
      -191.058        -148.873          47.000          40.800



 18  6 25 13 44 30.0000000  0  9G26G21G10G08G27G29G20G07G16
 110759681.783 8  86306337.604 8  21076877.844                    21076884.766
     -2117.783       -1650.223          51.000          48.900    82710239.785 8
  21076883.953       -1581.457          53.400


 113624884.035 8  88538864.62346  21622077.742                    21622080.742
     -1615.442       -1258.790          49.300          39.400



 123475971.189 7  96215161.692 7  23496703.844                    23496711.363
      3383.570        2636.543          44.500          42.700    92206203.180 7
  23496710.078        2526.690          46.800


 127553607.556 6  99392429.399 6  24272635.359                    24272641.777
      3114.800        2427.117          38.400          40.500    95251073.308 7
  24272641.492        2325.987          44.500


 111209703.351 8  86657006.122 8  21162508.000                    21162513.633
      2037.091        1587.343          49.700          48.400    83046303.365 8
  21162513.367        1521.201          51.500


 130957897.400 6 102045163.580 6  24920466.078                    24920471.730
     -3212.662       -2503.371          41.200          36.100



 114978962.308 7  89594083.41345  21879773.328                    21879775.996
      2194.986        1710.377          47.800          34.300



 131092402.035 7 102149971.318 5  24946059.453                    24946064.457
      2201.946        1715.801          43.700          34.300



 106727976.612 7  83164683.19246  20309656.383                    20309658.688
      -209.631        -163.350          47.600          40.600



 18  6 25 13 45  0.0000000  0  9G26G21G10G08G27G29G20G07G16
 110823450.670 8  86356027.623 8  21089012.828                    21089019.840
     -2133.007       -1662.081          49.300          49.200    82757859.382 8
  21089019.027       -1592.829          53.400


 113673503.077 8  88576749.58946  21631329.305                    21631332.570
     -1625.518       -1266.640          49.100          39.300



 123374551.819 7  96136133.687 7  23477404.156                    23477411.402
      3377.842        2632.081          45.000          42.600    92130468.025 7
  23477410.055        2522.407          46.200


 127460197.041 6  99319642.043 6  24254859.859                    24254867.078
      3112.611        2425.417          39.200          39.700    95181318.749 7
  24254866.914        2324.352          44.700


 111148730.467 8  86609494.796 8  21150905.508                    21150910.688
      2028.005        1580.268          50.200          48.900    83000771.674 8
  21150910.426        1514.418          52.100


 131054295.807 6 102120279.200 6  24938808.648                    24938815.688
     -3213.882       -2504.322          37.800          36.000



 114913346.054 8  89542953.88845  21867286.836                    21867289.992
      2179.878        1698.605          48.000          33.800



 131026563.982 7 102098668.975 5  24933530.703                    24933535.152
      2187.710        1704.708          42.200          35.000



 106734551.973 7  83169806.84246  20310907.539                    20310910.301
      -228.156        -177.786          45.900          40.300



 18  6 25 13 45 30.0000000  0  9G26G21G10G08G27G29G20G07G16
 110887676.591 8  86406073.776 8  21101234.289                    21101241.082
     -2148.226       -1673.940          49.800          49.300    82805820.270 8
  21101240.152       -1604.193          53.300


 113722424.762 8  88614870.38246  21640639.148                    21640642.051
     -1635.581       -1274.476          49.100          38.800



 123273306.710 7  96057241.463 6  23458137.477                    23458144.816
      3371.991        2627.527          44.000          41.100    92054862.983 7
  23458144.352        2518.046          46.000


 127366854.091 6  99246907.303 6  24237097.422                    24237103.445
      3110.325        2423.632          38.700          39.500    95111614.636 7
  24237103.805        2322.645          44.600


 111088031.944 8  86562197.252 8  21139355.195                    21139360.055
      2018.859        1573.140          50.300          49.000    82955444.871 8
  21139360.027        1507.592          52.100


 131150730.452 6 102195422.965 5  24957159.766                    24957166.758
     -3215.038       -2505.216          39.200          35.200



 114848184.864 7  89492178.95145  21854886.297                    21854890.547
      2164.692        1686.771          47.600          34.600



 130961155.236 6 102047701.152 5  24921082.594                    24921087.406
      2173.371        1693.537          41.800          35.100



 106741683.776 8  83175364.08746  20312264.766                    20312267.016
      -246.705        -192.237          48.000          40.900



 18  6 25 13 46  0.0000000  0  9G26G21G10G08G27G29G20G07G16
 110952357.868 8  86456474.749 8  21113542.633                    21113549.977
     -2163.352       -1685.724          49.900          49.500    82854121.198 8
  21113549.109       -1615.486          53.500


 113771647.042 8  88653225.39646  21650005.688                    21650008.805
     -1645.575       -1282.268          49.300          39.000



 123172238.593 7  95978487.150 6  23438904.711                    23438912.582
      3366.066        2622.903          43.900          41.000    91979390.119 7
  23438911.762        2513.613          45.900


 127273578.810 6  99174225.331 6  24219347.555                    24219354.441
      3108.081        2421.884          39.400          40.900    95041961.094 7
  24219354.395        2320.971          45.000


 111027608.512 8  86515114.071 8  21127856.484                    21127861.926
      2009.656        1565.969          49.600          49.100    82910323.489 8
  21127861.602        1500.718          52.200


 131247200.578 6 102270594.390 5  24975517.945                    24975523.762
     -3216.206       -2506.116          40.800          35.300



 114783480.858 8  89441760.26745  21842574.055                    21842577.527
      2149.401        1674.860          48.400          34.000



 130896177.841 7 101997069.441 5  24908718.352                    24908722.844
      2158.942        1682.300          42.800          34.100



 106749372.046 7  83181354.93846  20313727.641                    20313730.410
      -265.258        -206.689          47.100          41.000



 18  6 25 13 46 30.0000000  0  9G26G21G10G08G27G29G20G07G16
 111017493.309 8  86507229.629 8  21125937.609                    21125944.945
     -2178.469       -1697.507          50.000          49.100    82902761.279 8
  21125943.840       -1626.772          53.000


 113821168.565 8  88691813.59446  21659429.328                    21659432.340
     -1655.519       -1290.019          49.300          39.100



 123071350.501 7  95899873.122 7  23419706.844                    23419714.445
      3360.014        2618.198          44.500          42.100    91904051.692 7
  23419712.809        2509.103          45.200


 127180372.198 6  99101596.852 6  24201611.148                    24201617.777
      3105.846        2420.133          40.600          40.900    94972358.797 7
  24201617.145        2319.296          45.200


 110967461.153 8  86468246.016 8  21116411.102                    21116416.770
      2000.463        1558.804          49.600          49.200    82865408.278 8
  21116416.328        1493.857          52.500


 131343705.820 6 102345793.229 5  24993882.695                    24993888.395
     -3217.402       -2507.061          39.200          34.400



 114719236.599 7  89391699.83845  21830348.203                    21830352.242
      2134.051        1662.895          46.600          33.600



 130831633.858 7 101946775.474 5  24896437.211                    24896440.875
      2144.485        1671.044          42.900          34.400



 106757617.472 7  83187779.94546  20315296.453                    20315299.625
      -283.811        -221.148          47.400          41.300



 18  6 25 13 47  0.0000000  0  9G26G21G10G08G27G29G20G07G16
 111083081.085 8  86558336.969 8  21138418.320                    21138425.473
     -2193.526       -1709.242          50.000          49.300    82951739.141 8
  21138424.719       -1638.021          53.300


 113870987.587 8  88730633.61346  21668909.773                    21668912.707
     -1665.413       -1297.724          49.100          39.000



 122970644.985 7  95821401.350 6  23400543.398                    23400550.844
      3353.901        2613.429          44.600          41.800    91828849.580 7
  23400548.383        2504.535          44.900


 127087234.872 6  99029022.356 6  24183887.961                    24183893.324
      3103.478        2418.288          40.100          38.900    94902808.268 7
  24183894.387        2317.523          43.900


 110907590.490 8  86421593.577 8  21105018.086                    21105023.723
      1991.209        1551.591          50.200          49.500    82820699.689 8
  21105023.051        1486.943          52.100


 131440245.375 6 102421018.792 5  25012253.352                    25012259.922
     -3218.550       -2507.956          38.100          35.400



 114655454.096 7  89341999.20445  21818211.328                    21818214.652
      2118.617        1650.864          47.900          34.000



 130767525.335 7 101896820.805 5  24884237.141                    24884240.902
      2129.934        1659.679          42.900          34.800



 106766419.831 7  83194638.91546  20316971.609                    20316974.531
      -302.376        -235.616          46.600          40.900



 18  6 25 13 47 30.0000000  0  9G26G21G10G08G27G29G20G07G16
 111149119.700 8  86609795.607 8  21150985.180                    21150992.656
     -2208.518       -1720.921          51.100          49.500    83001053.664 8
  21150991.609       -1649.210          53.100


 113921101.969 8  88769683.77046  21678446.211                    21678449.234
     -1675.198       -1305.343          49.400          39.500



 122870124.931 7  95743074.060 7  23381414.609                    23381422.078
      3347.683        2608.582          45.500          42.000    91753785.950 7
  23381419.855        2499.897          46.000


 126994167.714 6  98956502.548 6  24166177.672                    24166183.441
      3101.113        2416.451          40.100          38.500    94833310.118 7
  24166184.211        2315.772          44.200


 110847997.374 8  86375157.388 8  21093677.563                    21093683.328
      1981.955        1544.384          49.800          48.900    82776198.357 8
  21093683.594        1480.026          52.500


 131536818.406 6 102496270.431 5  25030631.273                    25030636.445
     -3219.604       -2508.790          39.800          34.900



 114592135.831 7  89292660.33045  21806162.055                    21806166.012
      2103.140        1638.812          47.400          34.400



 130703854.029 7 101847206.820 5  24872120.758                    24872125.715
      2115.345        1648.317          43.400          35.600



 106775779.312 7  83201932.00646  20318752.406                    20318755.305
      -320.952        -250.089          47.900          40.800



 18  6 25 13 48  0.0000000  0  9G26G21G10G08G27G29G20G07G16
 111215607.873 8  86661604.552 8  21163637.758                    21163644.836
     -2223.530       -1732.625          50.500          49.700    83050703.895 8
  21163643.555       -1660.425          53.400


 113971510.743 8  88808963.33246  21688038.719                    21688041.516
     -1685.038       -1313.016          49.700          39.200



 122769793.427 7  95664893.729 7  23362322.117                    23362330.223
      3341.283        2603.588          44.400          43.800    91678863.147 7
  23362327.824        2495.113          45.400


 126901171.398 6  98884037.936 6  24148480.031                    24148487.156
      3098.700        2414.564          40.200          39.500    94763864.887 7
  24148487.398        2313.960          43.600


 110788682.818 8  86328938.273 8  21082390.484                    21082396.492
      1972.619        1537.112          50.100          49.300    82731905.046 8
  21082396.051        1473.065          52.300


 131633424.775 6 102571548.092 6  25049014.289                    25049020.027
     -3220.756       -2509.668          39.100          36.100



 114529283.874 7  89243684.80045  21794201.172                    21794205.105
      2087.502        1626.619          46.900          33.800



 130640622.265 7 101797935.353 5  24860088.906                    24860092.809
      2100.617        1636.849          43.700          35.200



 106785696.340 7  83209659.56146  20320639.570                    20320642.695
      -339.565        -264.594          47.200          41.200



 18  6 25 13 48 30.0000000  0  9G26G21G10G08G27G29G20G07G16
 111282544.153 8  86713762.657 8  21176375.508                    21176382.633
     -2238.415       -1744.219          50.600          48.800    83100688.750 8
  21176381.352       -1671.541          52.600


 114022211.947 8  88848470.76046  21697687.047                    21697689.383
     -1694.761       -1320.587          49.800          39.600



 122669653.330 7  95586862.559 7  23343266.656                    23343274.617
      3334.854        2598.580          44.300          43.700    91604083.279 7
  23343272.395        2490.311          46.200


 126808246.671 6  98811629.100 6  24130797.563                    24130804.246
      3096.305        2412.718          41.200          38.900    94694473.082 7
  24130804.430        2312.174          44.300


 110729647.757 8  86282936.945 8  21071156.508                    21071161.906
      1963.323        1529.862          50.500          48.400    82687820.441 8
  21071161.289        1466.121          51.900


 131730063.499 6 102646850.877 5  25067404.430                    25067410.613
     -3221.769       -2510.449          40.700          35.500



 114466900.726 7  89195074.57345  21782330.469                    21782334.863
      2071.877        1614.448          47.000          34.000



 130577831.845 7 101749007.766 5  24848140.000                    24848143.867
      2085.882        1625.368          44.700          35.400



 106796171.109 7  83217821.70846  20322632.664                    20322635.590
      -358.151        -279.079          47.600          40.800



 18  6 25 13 49  0.0000000  0  9G26G21G10G08G27G29G20G07G16
 111349926.906 8  86766268.676 8  21189197.883                    21189204.824
     -2253.267       -1755.791          51.400          49.500    83151007.017 8
  21189203.426       -1682.633          52.600


 114073204.254 8  88888205.02746  21707390.469                    21707393.059
     -1704.435       -1328.133          49.500          39.400



 122569707.478 7  95508982.745 7  23324247.461                    23324255.664
      3328.354        2593.521          43.400          44.100    91529448.472 7
  23324253.672        2485.460          46.300


 126715394.466 7  98739276.761 6  24113128.914                    24113135.121
      3093.878        2410.806          42.200          40.800    94625135.445 7
  24113135.363        2310.364          44.400


 110670893.007 8  86237154.032 8  21059975.922                    21059981.367
      1953.969        1522.574          49.200          49.000    82643945.156 8
  21059980.695        1459.129          51.900


 131826733.873 6 102722178.401 5  25085799.688                    25085805.949
     -3222.847       -2511.311          40.400          34.800



 114404988.451 7  89146831.26845  21770549.070                    21770552.809
      2056.125        1602.174          45.500          34.000



 130515484.902 6 101700425.774 6  24836276.016                    24836280.125
      2071.048        1613.800          41.500          36.100



 106807203.711 7  83226418.53946  20324732.094                    20324735.418
      -376.758        -293.580          47.600          40.400



 18  6 25 13 49 30.0000000  0  9G26G21G10G08G27G29G20G07G16
 111417754.974 8  86819121.686 8  21202104.930                    21202111.879
     -2268.082       -1767.334          51.100          48.600    83201657.815 8
  21202111.066       -1693.697          52.400


 114124486.439 8  88928165.15846  21717149.234                    21717151.957
     -1714.043       -1335.617          49.200          38.900



 122469959.099 7  95431256.803 7  23305265.844                    23305272.973
      3321.764        2588.385          44.900          43.400    91454961.113 7
  23305271.746        2480.534          46.600


 126622615.475 6  98666981.472 6  24095473.289                    24095479.770
      3091.475        2408.945          41.800          39.600    94555852.478 7
  24095479.547        2308.567          44.400


 110612419.741 8  86191590.466 8  21048849.188                    21048854.250
      1944.592        1515.264          50.000          49.700    82600280.074 8
  21048853.695        1452.131          52.400


 131923435.592 6 102797530.359 5  25104201.477                    25104206.988
     -3223.864       -2512.104          36.600          35.100



 114343549.696 7  89098956.92045  21758857.453                    21758861.809
      2040.318        1589.859          46.700          34.400



 130453583.528 6 101652190.974 6  24824496.203                    24824500.488
      2056.182        1602.217          40.900          36.900



 106818794.875 7  83235450.60346  20326938.453                    20326940.809
      -395.359        -308.065          47.700          41.100



 18  6 25 13 50  0.0000000  0  9G26G21G10G08G27G29G20G07G16
 111486026.670 8  86872320.377 8  21215096.961                    21215103.488
     -2282.852       -1778.841          50.700          48.700    83252639.901 8
  21215102.563       -1704.729          52.800


 114176056.168 8  88968349.36246  21726962.359                    21726965.164
     -1723.618       -1343.079          49.800          38.600



 122370410.960 7  95353686.868 7  23286322.242                    23286330.156
      3315.016        2583.128          43.400          43.400    91380623.276 7
  23286329.219        2475.488          47.200


 126529910.833 7  98594744.171 6  24077832.070                    24077838.688
      3088.967        2406.990          42.200          40.600    94486625.048 7
  24077838.109        2306.698          45.100


 110554228.732 8  86146246.827 8  21037775.289                    21037780.703
      1935.159        1507.920          50.200          49.500    82556825.766 8
  21037780.379        1445.085          52.000


 132020168.281 6 102872906.395 5  25122610.039                    25122614.711
     -3224.950       -2512.944          40.900          32.800



 114282586.671 7  89051453.30045  21747256.750                    21747260.805
      2024.425        1577.465          47.800          35.200



 130392129.623 6 101604304.841 5  24812801.234                    24812806.293
      2041.207        1590.547          40.200          35.000



 106830944.503 8  83244917.84046  20329249.961                    20329252.711
      -413.987        -322.584          48.600          41.100



 18  6 25 13 50 30.0000000  0  9G26G21G10G08G27G29G20G07G16
 111554740.636 8  86925863.690 8  21228172.750                    21228179.484
     -2297.571       -1790.313          50.400          48.400    83303952.232 8
  21228178.734       -1715.717          52.900


 114227912.450 8  89008756.84746  21736829.875                    21736833.297
     -1733.123       -1350.484          49.000          38.600



 122271066.055 7  95276275.335 7  23267417.586                    23267425.367
      3308.199        2577.811          44.200          43.900    91306437.231 7
  23267424.316        2470.405          47.000


 126437281.032 7  98522565.135 6  24060205.492                    24060211.578
      3086.437        2405.017          42.000          39.600    94417453.502 7
  24060212.055        2304.801          45.100


 110496321.021 8  86101123.942 8  21026755.727                    21026761.141
      1925.714        1500.555          51.200          49.500    82513583.002 8
  21026761.055        1438.038          52.600


 132116931.381 6 102948306.138 5  25141023.125                    25141028.973
     -3225.922       -2513.714          40.000          35.300



 114222101.922 7  89004322.34445  21735747.148                    21735750.695
      2008.425        1565.005          47.800          35.100



 130331125.200 7 101556768.949 5  24801192.188                    24801197.320
      2026.215        1578.873          43.300          35.900



 106843652.846 8  83254820.43846  20331669.000                    20331671.234
      -432.596        -337.086          48.100          41.100



 18  6 25 13 51  0.0000000  0  9G26G21G10G08G27G29G20G07G16
 111623894.994 8  86979750.176 8  21241332.047                    21241339.152
     -2312.234       -1801.741          50.500          48.400    83355593.434 8
  21241338.633       -1726.664          52.500


 114280053.065 8  89049385.89146  21746751.953                    21746754.703
     -1742.601       -1357.867          48.900          39.200



 122171927.067 7  95199024.245 7  23248551.906                    23248559.406
      3301.272        2572.419          44.300          43.400    91232404.952 7
  23248558.645        2465.234          47.100


 126344726.729 7  98450444.964 6  24042593.188                    24042599.375
      3083.918        2403.047          42.700          40.000    94348338.326 7
  24042599.090        2302.924          45.300


 110438697.220 8  86056222.297 8  21015790.422                    21015796.176
      1916.191        1493.134          50.400          49.800    82470552.247 8
  21015795.797        1430.927          52.000


 132213724.069 6 103023728.994 5  25159442.539                    25159448.746
     -3226.930       -2514.491          39.800          33.700



 114162097.265 8  88957565.48745  21724328.453                    21724332.797
      1992.393        1552.516          48.900          35.100



 130270572.167 7 101509584.765 5  24789669.039                    24789674.352
      2011.125        1567.107          43.900          35.600



 106856919.683 8  83265158.22846  20334193.375                    20334195.918
      -451.238        -351.609          48.800          41.600



 18  6 25 13 51 30.0000000  0  9G26G21G10G08G27G29G20G07G16
 111693488.704 8  87033979.017 8  21254575.750                    21254582.715
     -2326.839       -1813.120          51.200          48.200    83407562.737 8
  21254582.195       -1737.570          53.100


 114332477.108 8  89090235.79846  21756728.258                    21756731.055
     -1752.004       -1365.197          48.900          39.500



 122072997.374 7  95121936.246 7  23229726.719                    23229733.684
      3294.255        2566.953          44.700          43.800    91158528.967 7
  23229733.039        2459.996          47.500


 126252248.940 7  98378384.360 6  24024994.906                    24025000.723
      3081.334        2401.039          43.100          39.300    94279280.270 7
  24025001.434        2300.997          44.900


 110381358.760 8  86011542.977 8  21004879.227                    21004884.809
      1906.668        1485.720          51.100          49.300    82427734.580 8
  21004884.547        1423.814          52.200


 132310546.073 6 103099174.621 5  25177866.328                    25177872.734
     -3227.870       -2515.213          37.200          35.400



 114102575.123 7  88911184.61445  21713001.625                    21713005.461
      1976.274        1539.954          47.800          35.700



 130210472.705 7 101462754.033 6  24778232.406                    24778238.648
      1995.990        1555.314          42.700          36.600



 106870745.833 8  83275931.85146  20336824.352                    20336826.816
      -469.874        -366.137          48.600          40.600



 18  6 25 13 52  0.0000000  0  9G26G21G10G08G27G29G20G07G16
 111763519.999 8  87088548.835 8  21267902.188                    21267908.707
     -2341.409       -1824.472          50.700          48.500    83459858.804 8
  21267908.309       -1748.457          52.800


 114385182.818 8  89131305.17446  21766757.508                    21766761.113
     -1761.390       -1372.513          48.800          39.100



 121974279.694 7  95045013.432 7  23210941.133                    23210947.766
      3287.141        2561.408          45.200          43.600    91084811.290 8
  23210947.297        2454.684          48.200


 126159848.582 7  98306384.101 6  24007411.867                    24007417.570
      3078.758        2399.027          43.100          39.400    94210280.049 7
  24007417.582        2299.071          45.500


 110324306.245 8  85967086.491 8  20994022.445                    20994028.113
      1897.133        1478.286          51.200          50.000    82385130.449 8
  20994027.676        1416.689          52.800


 132407396.549 6 103174642.503 5  25196296.703                    25196302.797
     -3228.812       -2515.962          40.100          34.700



 114043537.492 8  88865181.27845  21701766.984                    21701771.117
      1960.092        1527.342          48.000          35.600



 130150828.390 7 101416277.986 6  24766884.273                    24766888.086
      1980.779        1543.463          43.200          36.400



 106885130.946 8  83287141.01646  20339561.594                    20339564.543
      -488.498        -380.650          49.000          41.100



 18  6 25 13 52 30.0000000  0  9G26G21G10G08G27G29G20G07G16
 111833987.182 8  87143458.314 8  21281311.547                    21281318.246
     -2355.889       -1835.758          50.300          48.200    83512480.371 8
  21281317.727       -1759.262          52.900


 114438168.399 8  89172592.63046  21776840.813                    21776843.555
     -1770.648       -1379.729          49.400          38.900



 121875776.726 7  94968257.937 7  23192196.461                    23192202.855
      3279.952        2555.815          45.700          42.900    91011253.964 8
  23192202.621        2449.312          48.000


 126067526.290 7  98234444.691 6  23989843.000                    23989849.047
      3076.169        2397.020          43.000          39.400    94141338.114 7
  23989849.176        2297.139          44.900


 110267540.567 8  85922853.504 8  20983220.195                    20983226.129
      1887.572        1470.832          50.700          50.200    82342740.507 8
  20983225.629        1409.552          52.900


 132504274.866 6 103250132.020 5  25214731.852                    25214738.105
     -3229.723       -2516.649          37.300          35.200



 113984986.685 7  88819557.30045  21690625.719                    21690628.723
      1943.841        1514.680          47.800          35.500



 130091641.259 7 101370158.177 5  24755620.578                    24755625.047
      1965.571        1531.606          43.200          35.600



 106900075.088 8  83298785.78946  20342405.781                    20342408.148
      -507.134        -395.174          49.100          41.700



 18  6 25 13 53  0.0000000  0  9G26G21G10G08G27G29G20G07G16
 111904888.979 8  87198706.444 7  21294803.805                    21294810.699
     -2370.369       -1847.043          51.100          47.800    83565426.490 8
  21294810.121       -1770.079          52.500


 114491432.544 8  89214097.15446  21786976.289                    21786979.297
     -1779.950       -1386.971          49.000          39.100



 121777491.704 7  94891672.263 7  23173493.539                    23173499.785
      3272.635        2550.107          44.800          43.100    90937859.364 7
  23173499.086        2443.852          47.600


 125975282.758 7  98162566.645 6  23972289.586                    23972295.086
      3073.509        2394.920          43.200          38.300    94072454.990 7
  23972294.918        2295.136          43.400


 110211062.911 8  85878844.968 8  20972473.258                    20972478.820
      1877.940        1463.330          51.400          50.000    82300565.658 8
  20972478.559        1402.353          52.900


 132601180.550 6 103325642.942 5  25233173.359                    25233179.172
     -3230.627       -2517.376          39.000          34.400



 113926925.168 8  88774314.57745  21679576.938                    21679580.246
      1927.474        1501.925          48.100          35.200



 130032913.538 7 101324396.348 6  24744443.914                    24744449.941
      1950.191        1519.624          43.300          36.800



 106915578.743 8  83310866.55146  20345356.227                    20345358.445
      -525.803        -409.716          49.100          41.900



 18  6 25 13 53 30.0000000  0  9G26G21G10G08G27G29G20G07G16
 111976223.359 8  87254291.660 8  21308378.578                    21308385.266
     -2384.740       -1858.242          51.600          48.000    83618695.651 8
  21308384.570       -1780.815          52.900


 114544973.264 8  89255817.18546  21797164.813                    21797167.723
     -1789.149       -1394.140          49.700          39.000



 121679427.175 7  94815258.388 7  23154832.180                    23154838.914
      3265.240        2544.341          45.700          43.800    90864629.412 8
  23154838.211        2438.330          48.000


 125883119.036 7  98090750.785 6  23954751.836                    23954757.949
      3070.807        2392.831          43.000          40.300    94003631.483 7
  23954757.605        2293.129          44.300


 110154873.695 8  85835061.177 8  20961780.828                    20961786.051
      1868.316        1455.835          51.100          49.500    82258606.193 8
  20961785.961        1395.171          53.000


 132698113.154 6 103401174.785 5  25251618.320                    25251624.488
     -3231.501       -2518.052          38.800          35.500



 113869354.498 8  88729454.33745  21668621.547                    21668624.832
      1911.093        1489.162          48.200          35.100



 129974646.536 7 101278993.489 6  24733356.953                    24733362.691
      1934.771        1507.616          44.100          36.600



 106931641.315 8  83323382.83346  20348412.453                    20348415.371
      -544.427        -424.223          49.900          41.400



 18  6 25 13 54  0.0000000  0  9G26G21G10G08G27G29G20G07G16
 112047988.980 8  87310212.905 8  21322035.203                    21322041.637
     -2399.118       -1869.442          51.900          48.000    83672286.832 8
  21322040.945       -1791.547          52.400


 114598789.240 8  89297751.71146  21807405.695                    21807408.359
     -1798.280       -1401.261          49.500          39.100



 121581586.320 7  94739018.808 7  23136213.531                    23136220.605
      3257.730        2538.486          45.600          43.100    90791566.491 7
  23136219.492        2432.712          47.900


 125791035.661 7  98018997.546 6  23937228.484                    23937235.008
      3068.170        2390.779          42.900          40.500    93934867.955 7
  23937234.902        2291.163          44.600


 110098974.184 8  85791503.128 8  20951143.430                    20951148.988
      1858.634        1448.284          50.400          49.700    82216863.065 8
  20951148.902        1387.941          53.300


 132795071.953 6 103476727.026 6  25270069.086                    25270075.750
     -3232.339       -2518.702          41.600          36.900



 113812277.124 7  88684978.48145  21657760.086                    21657763.512
      1894.612        1476.316          46.000          35.000



 129916842.476 7 101233951.391 5  24722357.391                    24722361.922
      1919.318        1495.571          45.600          35.400



 106948263.074 8  83336334.85146  20351575.516                    20351577.672
      -563.073        -438.761          48.900          41.100



 18  6 25 13 54 30.0000000  0 10G26G21G10G08G27G29G20G07G16G15
 112120184.229 8  87366468.914 8  21335773.297                    21335780.125
     -2413.405       -1880.571          51.100          48.000    83726198.846 8
  21335779.430       -1802.219          52.300


 114652878.671 8  89339899.30346  21817698.992                    21817701.680
     -1807.359       -1408.331          49.500          39.400



 121483971.963 7  94662955.709 7  23117637.789                    23117645.082
      3250.124        2532.565          44.700          43.600    90718672.701 7
  23117643.441        2427.036          47.900


 125699033.755 7  97947307.793 6  23919721.219                    23919727.621
      3065.410        2388.629          43.200          40.300    93866165.269 7
  23919726.637        2289.109          44.700


 110043365.348 8  85748171.582 8  20940561.438                    20940566.988
      1848.928        1440.725          51.800          49.600    82175336.998 8
  20940566.781        1380.696          53.100


 132892056.280 5 103552299.191 5  25288523.992                    25288531.570
     -3233.252       -2519.389          32.900          34.500



 113755695.200 7  88640888.69545  21646993.070                    21646996.207
      1878.061        1463.420          47.700          35.300



 129859503.280 7 101189271.496 5  24711445.914                    24711450.629
      1903.794        1483.476          44.400          35.700



 106965444.226 8  83349722.74246  20354844.969                    20354847.805
      -581.728        -453.288          49.100          41.900



 134386606.630 6                  25572925.484
      2046.454                          36.200



 18  6 25 13 55  0.0000000  0 10G26G21G10G08G27G29G20G07G16G15
 112192807.248 8  87423058.266 8  21349592.977                    21349599.840
     -2427.644       -1891.668          51.200          48.000    83780430.299 8
  21349599.027       -1812.855          52.800


 114707239.789 8  89382258.61146  21828043.484                    21828046.297
     -1816.384       -1415.362          48.900          39.700



 121386586.848 7  94587071.254 7  23099105.984                    23099113.121
      3242.445        2526.578          45.800          43.600    90645950.104 8
  23099111.484        2421.302          48.300


 125607113.994 7  97875682.067 6  23902229.211                    23902235.895
      3062.675        2386.494          43.300          40.200    93797523.941 7
  23902235.961        2287.059          44.700


 109988047.807 8  85705067.013 8  20930034.859                    20930040.543
      1839.241        1433.166          51.000          49.100    82134028.454 8
  20930040.277        1373.458          53.000


 132989065.700 6 103627890.954 5  25306985.227                    25306990.625
     -3234.056       -2520.061          38.100          31.600



 113699610.535 7  88597186.38945  21636320.008                    21636323.477
      1861.446        1450.475          47.000          34.900



 129802630.708 7 101144955.246 5  24700623.711                    24700628.066
      1888.219        1471.334          44.100          35.200



 106983184.348 8  83363546.20146  20358220.867                    20358223.547
      -600.347        -467.797          49.600          41.400



 134325384.992 6 104669168.768 4  25561275.922                    25561281.820
      2035.426        1586.004          36.800          29.300



 18  6 25 13 55 30.0000000  0 10G26G21G10G08G27G29G20G07G16G15
 112265856.714 8  87479979.897 8  21363493.938                    21363501.039
     -2441.835       -1902.729          51.800          48.100    83834980.189 8
  21363500.289       -1823.446          52.400


 114761871.609 8  89424828.85446  21838439.719                    21838442.383
     -1825.396       -1422.390          49.300          39.000



 121289434.166 7  94511367.900 7  23080618.547                    23080626.059
      3234.653        2520.505          45.500          43.600    90573401.078 7
  23080624.598        2415.481          47.800


 125515277.320 7  97804121.028 6  23884752.805                    23884760.012
      3059.883        2384.322          42.100          39.400    93728944.641 7
  23884760.141        2284.978          44.600


 109933022.838 8  85662190.420 8  20919563.969                    20919569.316
      1829.454        1425.548          50.700          48.100    82092938.383 8
  20919569.051        1366.155          53.000


 133086099.874 6 103703501.947 6  25325450.148                    25325456.547
     -3234.837       -2520.643          38.800          36.500



 113644025.688 7  88553873.54545  21625742.656                    21625745.906
      1844.773        1437.484          46.400          35.200



 129746226.627 7 101101004.050 6  24689890.453                    24689894.867
      1872.580        1459.154          43.700          36.700



 107001483.922 8  83377805.59846  20361702.938                    20361705.543
      -618.993        -482.330          49.000          41.200



 134264499.459 6 104621725.423 5  25549689.352                    25549695.750
      2024.069        1577.188          38.400          33.800



 18  6 25 13 56  0.0000000  0 10G26G21G10G08G27G29G20G07G16G15
 112339331.052 8  87537232.615 8  21377475.828                    21377482.340
     -2455.987       -1913.759          51.600          48.300    83889847.372 8
  21377481.820       -1834.014          52.500


 114816772.288 8  89467608.59146  21848886.914                    21848889.570
     -1834.363       -1429.375          49.600          39.200



 121192517.011 7  94435848.097 7  23062175.984                    23062183.316
      3226.739        2514.337          45.200          43.700    90501027.935 8
  23062182.500        2409.573          48.500


 125423524.400 7  97732625.294 6  23867293.727                    23867299.500
      3057.034        2382.094          42.300          40.000    93660427.897 7
  23867299.742        2282.843          46.100


 109878291.486 8  85619542.610 8  20909148.531                    20909153.844
      1819.623        1417.891          49.800          49.000    82052067.580 8
  20909153.875        1358.811          52.900


 133183158.250 6 103779131.785 5  25343919.227                    25343926.379
     -3235.696       -2521.319          38.500          35.700



 113588942.809 7  88510951.85345  21615260.898                    21615264.031
      1827.963        1424.384          47.300          35.800



 129690292.699 7 101057419.202 5  24679246.852                    24679250.371
      1856.866        1446.897          42.600          35.900



 107020342.867 8  83392500.86546  20365292.086                    20365294.297
      -637.676        -496.893          49.100          41.600



 134203952.451 6 104574546.001 5  25538167.531                    25538174.395
      2012.720        1568.341          40.200          34.900



 18  6 25 13 56 30.0000000  0  9G26G21G10G08G27G29G20G07G16
 112413228.288 8  87594814.848 7  21391537.477                    21391544.566
     -2470.042       -1924.705          51.500          47.900    83945030.341 8
  21391544.109       -1844.512          52.500


 114871939.979 8  89510596.39446  21859384.930                    21859387.297
     -1843.203       -1436.266          49.900          39.500



 121095837.867 7  94360513.744 7  23043779.055                    23043785.543
      3218.754        2508.115          45.100          44.100    90428832.523 8
  23043784.840        2403.612          48.700


 125331856.068 7  97661195.432 6  23849849.492                    23849855.906
      3054.252        2379.929          42.400          41.200    93591974.311 7
  23849855.094        2280.770          45.800


 109823854.309 8  85577124.047 8  20898790.047                    20898794.793
      1809.815        1410.241          51.100          49.100    82011416.449 8
  20898795.000        1351.481          53.300


 133280239.807 6 103854779.670 5  25362394.633                    25362400.773
     -3236.490       -2521.942          36.000          31.400



 113534363.641 7  88468422.64645  21604874.344                    21604877.879
      1811.171        1411.306          47.200          35.500



 129634830.671 7 101014202.044 5  24668691.742                    24668695.941
      1841.102        1434.629          42.700          35.300



 107039760.819 8  83407631.72446  20368986.742                    20368988.875
      -656.268        -511.376          48.900          40.400



 18  6 25 13 57  0.0000000  0 10G26G21G10G08G27G29G20G07G16G15
 112487546.705 8  87652725.282 8  21405680.156                    21405687.031
     -2484.050       -1935.628          51.800          48.500    84000527.833 8
  21405686.570       -1854.969          52.400


 114927373.117 8  89553791.04246  21869933.422                    21869935.996
     -1852.061       -1443.166          49.300          39.000



 120999399.647 7  94285367.127 7  23025426.852                    23025434.363
      3210.691        2501.833          44.700          44.400    90356817.023 8
  23025433.074        2397.593          48.000


 125240273.239 7  97589832.195 6  23832421.266                    23832428.582
      3051.359        2377.692          42.300          41.300    93523584.553 7
  23832427.652        2278.611          44.900


 109769712.169 8  85534935.360 8  20888486.438                    20888491.402
      1799.956        1402.565          50.200          49.000    81970985.646 8
  20888491.605        1344.123          53.000


 133377344.837 6 103930445.939 5  25380871.945                    25380879.207
     -3237.212       -2522.486          39.800          34.700



 113480290.104 7  88426287.44045  21594585.008                    21594587.738
      1794.268        1398.127          47.700          35.800



 129579842.308 7 100971353.986 5  24658228.031                    24658231.918
      1825.278        1422.303          42.300          34.900



 107059737.548 8  83423197.99746  20372789.000                    20372791.098
      -674.910        -525.906          49.200          40.600



 134083927.796 6 104480988.043 5  25515320.172                    25515325.324
      1989.821        1550.504          40.100          34.300



 18  6 25 13 57 30.0000000  0 10G26G21G10G08G27G29G20G07G16G15
 112562284.931 8  87710962.836 8  21419902.297                    21419909.082
     -2498.035       -1946.517          51.200          48.500    84056338.820 8
  21419908.391       -1865.420          52.100


 114983070.027 8  89597191.22346  21880532.320                    21880534.570
     -1860.830       -1450.000          49.600          38.900



 120903205.511 7  94210410.689 7  23007122.391                    23007128.871
      3202.513        2495.465          44.700          43.900    90284983.788 8
  23007127.879        2391.488          48.500


 125148776.892 7  97518536.388 6  23815010.703                    23815017.496
      3048.486        2375.444          42.000          41.800    93455259.396 7
  23815016.684        2276.467          45.100


 109715866.367 8  85492977.614 8  20878240.281                    20878245.223
      1790.054        1394.851          50.500          49.300    81930776.137 8
  20878245.313        1336.725          53.100


 133474472.578 6 104006129.847 6  25399354.898                    25399361.363
     -3237.975       -2523.102          40.900          36.000



 113426724.602 7  88384548.10545  21584391.992                    21584394.676
      1777.307        1384.913          47.100          35.800



 129525329.871 7 100928876.794 5  24647854.141                    24647858.820
      1809.359        1409.894          42.000          35.800



 107080273.591 8  83439200.10246  20376696.531                    20376699.059
      -693.567        -540.438          49.100          40.900



 134024411.896 6 104434618.167 5  25503994.273
      1978.262        1541.498          38.100          35.200



 18  6 25 13 58  0.0000000  0 10G26G21G10G08G27G29G20G07G16G15
 112637441.079 8  87769526.035 7  21434203.875                    21434211.469
     -2511.894       -1957.312          51.000          47.600    84112461.882 8
  21434210.598       -1875.762          52.100


 115039029.725 8  89640796.17446  21891180.922                    21891183.359
     -1869.490       -1456.750          48.600          38.700



 120807258.173 7  94135646.565 7  22988863.516                    22988871.344
      3194.244        2489.017          44.700          44.400    90213334.846 8
  22988870.117        2385.309          48.300


 125057367.886 7  97447308.621 6  23797616.000                    23797622.609
      3045.579        2373.187          42.800          41.700    93386999.456 7
  23797621.797        2274.301          45.100


 109662317.634 8  85451251.339 8  20868050.352                    20868055.801
      1780.188        1387.156          50.100          49.300    81890788.457 8
  20868055.594        1329.355          53.000


 133571621.631 6 104081830.372 5  25417842.133                    25417848.344
     -3238.674       -2523.629          39.400          34.700



 113373668.941 7  88343206.05945  21574295.289                    21574298.203
      1760.325        1371.681          46.000          35.500



 129471294.628 7 100886771.423 6  24637572.125                    24637577.004
      1793.485        1397.516          43.300          36.900



 107101368.500 8  83455637.68746  20380710.844                    20380713.398
      -712.142        -554.919          48.100          41.600



 133965245.42915                  25492735.094
      1966.641                          30.700



 18  6 25 13 58 30.0000000  0 10G26G21G10G08G27G29G20G07G16G15
 112713013.306 8  87828413.457 8  21448584.695                    21448592.043
     -2525.795       -1968.151          50.700          48.300    84168895.657 8
  21448591.348       -1886.144          52.100


 115095250.099 8  89684604.25546  21901879.133                    21901881.922
     -1878.228       -1463.561          48.900          38.600



 120711560.429 7  94061076.941 7  22970652.984                    22970660.168
      3185.849        2482.475          44.400          44.500    90141872.279 8
  22970659.117        2379.042          48.700


 124966046.858 7  97376149.433 7  23780237.859                    23780244.590
      3042.582        2370.840          43.400          42.000    93318805.222 7
  23780244.598        2272.056          46.000


 109609066.767 8  85409757.169 8  20857916.898                    20857922.141
      1770.199        1379.376          51.200          49.200    81851023.206 8
  20857922.109        1321.902          53.400


 133668792.117 5 104157547.636 4  25436332.453                    25436339.477
     -3239.370       -2524.198          33.300          29.700



 113321124.947 7  88302262.70445  21564296.594                    21564299.488
      1743.185        1358.324          47.700          35.200



 129417738.396 7 100845039.348 6  24627381.023                    24627385.344
      1777.471        1385.040          43.000          36.900



 107123021.749 8  83472510.33346  20384830.383                    20384834.336
      -730.812        -569.465          48.600          41.100



 133906433.640 6                  25481542.273
      1954.766                          37.200



 18  6 25 13 59  0.0000000  0 10G26G21G10G08G27G29G20G07G16G15
 112788999.950 8  87887623.804 8  21463044.695                    21463051.859
     -2539.538       -1978.859          50.800          48.500    84225638.901 8
  21463050.988       -1896.409          52.200


 115151729.805 8  89728614.40046  21912627.109                    21912629.477
     -1886.800       -1470.237          49.100          38.400



 120616115.327 7  93986704.166 7  22952490.734                    22952497.602
      3177.419        2475.912          44.600          44.500    90070598.392 8
  22952496.434        2372.746          48.500


 124874814.713 6  97305059.465 6  23762876.625                    23762883.527
      3039.658        2368.564          41.100          41.700    93250677.357 7
  23762883.301        2269.879          46.200


 109556114.761 8  85368495.861 8  20847840.211                    20847845.680
      1760.249        1371.620          49.200          49.800    81811481.131 8
  20847845.707        1314.469          52.900


 133765983.700 6 104233281.260 5  25454828.203                    25454833.820
     -3240.052       -2524.735          36.700          30.800



 113269094.639 7  88261719.62945  21554395.469                    21554398.422
      1726.057        1344.976          45.700          35.300



 129364662.958 7 100803681.879 6  24617279.750                    24617285.398
      1761.418        1372.524          43.200          37.700



 107145233.450 8  83489818.14446  20389057.406                    20389060.840
      -749.389        -583.933          48.400          41.200



 133847972.562 6 104297125.795 6  25470417.445                    25470424.270
      1942.970        1514.004          39.100          36.100



 18  6 25 13 59 30.0000000  0 10G26G21G10G08G27G29G20G07G16G15
 112865399.496 8  87947155.900 7  21477582.953                    21477590.375
     -2553.323       -1989.604          50.600          47.900    84282690.485 8
  21477589.508       -1906.702          52.000


 115208467.404 8  89772825.51146  21923424.281                    21923426.195
     -1895.438       -1476.967          48.600          38.700



 120520925.845 7  93912530.581 7  22934376.359                    22934383.313
      3168.806        2469.199          45.300          44.500    89999515.384 8
  22934382.082        2366.313          48.700


 124783672.533 7  97234039.629 6  23745533.164                    23745539.641
      3036.593        2366.184          42.500          41.800    93182616.681 7
  23745539.535        2267.584          46.500


 109503462.759 8  85327468.342 8  20837821.031                    20837826.891
      1750.195        1363.795          51.100          49.900    81772163.080 8
  20837826.742        1306.970          53.200


 133863195.778 6 104309030.910 5  25473326.367                    25473332.453
     -3240.790       -2525.294          40.300          34.300



 113217580.317 7  88221578.61145  21544592.086                    21544596.039
      1708.771        1331.505          46.600          35.900



 129312069.942 6 100762700.314 5  24607272.820                    24607277.504
      1745.266        1359.931          41.700          35.800



 107168003.689 8  83507561.18546  20393390.430                    20393393.500
      -768.034        -598.472          48.500          41.000



 133789868.764 6 104251850.197 5  25459361.391                    25459367.270
      1930.997        1504.678          36.900          34.100



